"latitud","longitud","user","id","address","price","title","review","rating","sector"
"51.61791745750147","-0.1125189347683731","1955559","581664","LB of Enfield, Londres","58","Lux Studio en suite kitchen. Wifi","53","4.5","bajo"
"51.496243258144496","-0.22759739385846414","949926","454008","Hammersmith, Londres","74","Central Modern High-Spec En-suite","221","4.5","bajo"
"51.5381872011039","-0.09867817834594994","14816225","8412719","Islington, Londres","55","Great home with double bed in Angel","0","0","bajo"
"51.50950823993491","-0.2762350042329351","4261235","969272","Acton, Londres","70","LOVELY BRIGHT  STUDIO wi fi garden","16","4.0","bajo"
"51.524055700926255","-0.16142699485607634","1796536","3363092","Lisson Grove, Londres","76","F4144 Studio Flat in Baker Street","27","4.0","bajo"
"51.46684763358547","-0.050401101025376045","7594003","7432805","New Cross, Londres","76","Cosy top flat with view of London","3","4.5","bajo"
"51.46885231387405","-0.01626227450946545","11042738","7552872","Lewisham, Londres","62","10 minutes walk from Greenwich Park","1","0","bajo"
"51.443526817590815","0.01551312064977834","40098922","7819293","Grove Park, Londres","62","Comfortable Studio in London - SE12","15","5.0","bajo"
"51.578022788896206","-0.12836084531201924","16814584","5804727","LB of Haringey, Londres","76","Sunny Studio with Private Garden 1.","39","4.5","bajo"
"51.46148139143049","-0.12370234603781503","4916637","6558406","Brixton, Londres","62","Charming flat perfect location!","2","0","bajo"
"51.5478345925604","-0.07038137934393315","40767203","7816275","Dalston, Londres","62","Trendy Dalston Apartment","3","4.5","bajo"
"51.433037358554785","-0.11432094812303406","19859191","9675732","Streatham, Londres","65","A BRIGHT AND LARGE STUDIO IN LONDON","0","0","bajo"
"51.53995837167845","-0.19453090421378424","291736","3589863","Hampstead, Londres","70","SELF-CONTAINED STUDIO FLAT ZONE 2","53","3.0","bajo"
"51.456347128548586","-0.023525350237536408","22611070","4355944","Lewisham, Londres","70","bookish? live in academic library","12","4.5","bajo"
"51.530950709691005","0.00546067257994305","2272296","6142651","Stratford, Londres","62","STUDIO Flat,West Ham,LONDON E15","18","4.5","bajo"
"51.51675399587009","-0.15920434150723337","49248213","9502652","Marylebone, Londres","70","Studio Flat, Compact and Cute.","1","0","bajo"
"51.46709581373753","-0.06998892658932829","50105709","9703520","Camberwell, Londres","70","BEAUTIFUL WARM FLAT 27 dec-12 jan","0","0","bajo"
"51.61538891240154","-0.1107686882732076","1955559","9020973","LB of Enfield, Londres","55","C LUX STDIO PKING 180 cm BED","3","4.5","bajo"
"51.613915395583746","-0.11056893490344423","1955559","9020095","LB of Enfield, Londres","55","A Brght 2/P STDIO P'KING SUPERBED","5","4.5","bajo"
"51.566422383935254","-0.23479706263976036","37170414","7092146","LB of Brent, Londres","46","Beautiful new flat in Dollis Hill","5","5.0","bajo"
"51.54999341379994","-0.16139075541203876","8923601","1688567","Hampstead, Londres","70","Boutique studio flat near Camden","1","0","bajo"
"51.59802336373346","-0.14674009130410062","6191426","9690275","LB of Haringey, Londres","55","Light, White North London Apartment","0","0","bajo"
"51.47566260914706","0.062008512547279016","2557034","724221","RB of Greenwich, Londres","70","Studio within Victorian House","33","4.0","bajo"
"51.58253045546506","-0.23067912871137314","2672646","7707539","LB of Barnet, Londres","71","Cosy studio flat in Hendon Central","5","4.0","bajo"
"51.495763080307285","-0.18418036921273","47563141","9132182","Kensington, Londres","55","PRIVATE STUDIO ROOM IN CHELSEA","3","4.5","bajo"
"51.50188585495104","-0.22338662606371226","28606609","9539233","Hammersmith, Londres","73","New Studio in quiet safe building","0","0","bajo"
"51.575258011753526","-0.1286008141784695","16814584","6224074","LB of Haringey, Londres","76","Sunny Studio with Private Garden 2.","19","5.0","bajo"
"51.54146928477458","-0.25205892693000187","46243603","9708899","LB of Brent, Londres","70","Charming NW London studio flat","0","0","bajo"
"51.54232968956841","-0.20267176102385145","2336745","4622851","LB of Brent, Londres","70","Central Modern Studio trendy area ","24","4.0","bajo"
"51.502918614255975","-0.2761009947530953","9714971","9235032","Acton, Londres","70","Spacious and cozy studio","0","0","bajo"
"51.48997651546487","-0.28042113214617326","2078559","7572203","LB of Hounslow, Londres","68","NEW Studio Flat.  25mins to center.","2","0","bajo"
"51.5275196867007","-0.08593924232841946","7430139","8623130","Shoreditch, Londres","70","Ultra Modern Studio- Central London","2","0","bajo"
"51.52583577190176","0.017527414700080367","2574432","9614407","LB of Newham, Londres","71","Contemporary East London flat","0","0","bajo"
"51.52507885398408","-0.11847388356603118","5950605","9204938","St. Pancras, Londres","70","Single Room in College Hall","0","0","bajo"
"51.490991332252094","-0.2706762209485719","1461531","7705424","Acton, Londres","62","Very cheap in nice area","2","0","bajo"
"51.47512189920004","0.06151748549686302","2557034","3428816","RB of Greenwich, Londres","70","Small Sunny Private Studio Room ","37","4.0","bajo"
"51.620397468545725","-0.07270677148981754","35055582","6696995","LB of Enfield, Edmonton","53","Cosy Studio Flat for all your needs","14","5.0","bajo"
"51.5078426120039","0.07229576926524367","39850910","7599345","LB of Newham, Londres","76","Lovely one bedroom flat near Excel","6","4.5","bajo"
"51.45136252497936","0.12780571816766062","34581437","6609026","LB of Bexley, Bexleyheath","62","Private, self-contained Studio","23","4.5","bajo"
"51.472282422875324","-0.16854304047385513","45898853","8751091","Battersea, Londres","70","COSY ONE BEDROOM FLAT IN BATTERSEA","2","0","bajo"
"51.5405419572175","-0.05584487453180406","102885","2229117","Hackney, Gran Londres","15","London Fields 2 Bedroom Flat Home","1","0","bajo"
"51.55197994005532","-0.21657674630511728","45199240","9043648","LB of Brent, Londres","55","Independent 1BHK in central London","0","0","bajo"
"51.54753600149273","-0.22252703729088094","13118245","7230807","LB of Brent, Londres","70","Cosy studio apartment- Zone 2","0","0","bajo"
"51.490865405629265","-0.09214093282504236","21399865","9583437","Walworth, Londres","62","Comfortable, spacious - + two cats!","0","0","bajo"
"51.49969613317365","-0.01923624349432357","49786548","9624801","Isle of Dogs, Londres","70","GREAT LOCATION & VIEW FROM BALCONY","0","0","bajo"
"51.55683796153457","-0.04339281974160849","47343530","9078178","LB of Hackney, Londres","71","Clean Airy flat Hackney London","0","0","bajo"
"51.59898048838293","-0.3361703200342307","34642287","7236512","LB of Harrow, Harrow","55","Ground Floor Single Studio Flat C","6","3.5","bajo"
"51.5110617740521","-0.026637191439938358","48878413","9650919","Poplar, Londres","62","Studio Flat In Westferry","0","0","bajo"
"51.557674620365525","-0.08632009208517619","5435872","7609706","Stoke Newington, Londres","46","Cozy 1 bed flat","1","0","bajo"
"51.60365393695204","-0.14343914465687385","2131483","676476","LB of Barnet, Londres","76","Studio flat in quiet Muswell Hill","46","4.5","bajo"
"51.442247726019005","-0.02320142200458116","190208","6969663","Bellingham, Londres","70","5* hosts offer massive discounts!","10","5.0","bajo"
"51.522184259602774","-0.22733362904610888","1802730","9552391","RB of Kensington and Chelsea, Londres","56","1 bed apartment 6 months + rental","0","0","bajo"
"51.5264390133306","-0.19123520469846075","43364875","9324763","Maida Vale, Londres","65","Fab Victorian studio in Maida Vale","0","0","bajo"
"51.43283212212829","-0.10838647430119872","11729785","2296601","Streatham, Gran Londres","70","BARGAN BARGAN BARGAN short lease","0","0","bajo"
"51.556402518675085","-0.09718787292493827","4189056","8465344","LB of Islington, Londres","55","Studio in Islington for female only","1","0","bajo"
"51.50566130695497","-0.23776518495780843","37913415","9766888","Shepherd's Bush, Londres","62","Cosy flat in Shepherd's Bush W12","0","0","bajo"
"51.54661104234654","-0.22900461837862834","1921437","8724399","LB of Brent, Londres","55","Private apartment for rent, London","0","0","bajo"
"51.5925691015826","-0.03094714801071684","31105329","9506821","LB of Waltham Forest, Londres","70","Nice Cosy Flat In Blackhorse Road","0","0","bajo"
"51.531437873895236","0.03324934222752943","37204438","7098150","LB of Newham, Londres","67","Studio just for you !","2","0","bajo"
"51.47640464421979","-0.024156241243801193","27878987","5377726","Deptford, Londres","76","Charming & Spacious 1BD Flat","5","4.0","bajo"
"51.47235212723804","-0.16526954705321348","49795798","9627122","Battersea, Londres","70","A Great studio in the heart of Bat","0","0","bajo"
"51.59944969263527","-0.3352615707135613","34642287","6921523","LB of Harrow, Harrow","70","Spencer Inn - Ground Floor Studio A","22","4.0","bajo"
"51.55456092290773","-0.07832117363919046","15396245","7655537","Stoke Newington, Londres","58","1 Bed Converted Trendy Studio Flat","1","0","bajo"
"51.563874703238646","-0.19754525367360248","13297236","9279827","LB of Barnet, Londres","55","Studio Flat in convenient location","0","0","bajo"
"51.56212767374107","-0.10919417866941084","781429","563038","LB of Islington, Londres","70","Great flat near Arsenal!","33","4.5","bajo"
"51.436864788142586","-0.15749293891076416","33365236","6398942","Tooting Bec, Londres","62","Quiet, lovely studio in lively area","0","0","bajo"
"51.56229852854785","-0.09887701434639422","35698620","8858072","LB of Islington, Londres","70","Bright studio near Arsenal","1","0","bajo"
"51.5473592151713","-0.2103076708992001","48473743","9339809","LB of Brent, Londres","70","Lovely studio in Kilburn","0","0","bajo"
"51.42027921608089","-0.19167329457683968","13149023","9703965","Wimbledon, Londres","71","Cosy apartment in London","0","0","bajo"
"51.51056843119865","-0.2611454450356069","2078559","2298216","Acton, Gran Londres","71","NEW Studio Flat, 3 people London (1","33","4.5","bajo"
"51.52690796961905","-0.1223202267652141","49100515","9474586","St. Pancras, Londres","76","Bright & spacious studio centralLDN","0","0","bajo"
"51.521721753143495","-0.04626138014715415","37896767","7238219","Mile End, Londres","76","Amazing Apartment Sleeps 4","5","4.0","bajo"
"51.56191459359623","0.005252611972574895","42063187","9247973","LB of Waltham Forest, Londres","68","SPEND XMAS IN A LUXE LONDON HOUSE!","0","0","bajo"
"51.52560068192273","-0.09968329364364702","17240624","7429191","St. Luke's, Londres","55","Barbican/Old St. Student En-suite","0","0","bajo"
"51.415452345256575","-0.06707068865628434","19815438","9574131","Crystal Palace, Londres","70","Cozy 1 bed flat in Crystal Palace","0","0","bajo"
"51.51513903646261","-0.1751782411041354","50140442","9712727","Paddington, Londres","39","Semistudio, Paddington Station","0","0","bajo"
"51.42326966134954","-0.02076342658065","49405444","9539035","Beckenham, Londres","70","Sunny, well equipped Beckenham flat","0","0","bajo"
"51.46348323241633","-0.08725397394615829","6340745","8805495","Herne Hill, Londres","62","Lovely Spacious 1 Bed Flat","2","0","bajo"
"51.54674052528574","-0.19978726902352564","18734525","3693835","Hampstead, Londres","62","Fantastic compact Studio apartment","23","4.0","bajo"
"51.476622640697634","-0.02785527458367323","1516948","471896","Deptford, Londres","76","Stylish Top Floor Appt with Views","68","4.5","bajo"
"51.5333582701192","-0.028393293728121695","4802881","9267407","Bow, Londres","76","New Studio Flat - Incredible Views!","0","0","bajo"
"51.438796681767904","-0.12206455660656168","28792306","5553112","Streatham, Londres","70","Studio flat - quiet -self contained","11","5.0","bajo"
"51.420426798066536","-0.07938980843743533","22806116","9658794","West Norwood, Londres","73","Penthouse flat with stunning views","0","0","bajo"
"51.52386846147667","-0.06068402185821488","2609287","2403508","Bethnal Green, Londres","76","★★ Huge Luxury Apt★ Nr Shoreditch★★","15","4.5","bajo"
"51.540557960303275","-0.05563010833805712","102885","1973433","Hackney, Gran Londres","15","London Fields 2 Bedroom Flat Stay","6","3.5","bajo"
"51.37530139945489","-0.17466550997875563","41059830","7801014","LB of Sutton, Londres","62","Studio flat - South London","9","4.5","bajo"
"51.588909955597885","-0.01736302627348668","36947520","9479904","LB of Waltham Forest, Londres","55","Cosy Compact studio London","0","0","bajo"
"51.509782037840814","-0.26296617899954045","37855596","7488732","Acton, Londres","45","A clean, modernized & quiet studio.","1","0","bajo"
"51.48798515199846","-0.263730624932749","45377688","8630026","LB of Hounslow, Londres","76","Convenient & Clean 1 bedrm flat","3","4.5","bajo"
"51.4301146011269","-0.041406998354206796","44584500","9074079","Sydenham, Londres","55","Ultra-modern garden flat for Xmas","0","0","bajo"
"51.59624157952896","-0.18623394475687574","48194653","9280742","LB of Barnet, Londres","76","Gorgeous flat in leafy North London","3","4.5","bajo"
"51.5371301182454","-0.29653306445734856","1901585","378555","LB of Brent, Londres","64","Beautiful STUDIO FLAT to Rent","19","3.5","bajo"
"51.519131676528815","-0.1968381255645175","2866851","1542764","Westbourne Green, Londres","70","Last minute SALE £45! Notting Hill!","65","4.0","bajo"
"51.55633846978661","-0.0813987524467617","21250003","7744225","Stoke Newington, Londres","67","Lovely flat next to trendy Dalston","1","0","bajo"
"51.55508350346238","-0.037515236847222425","40762629","7753097","LB of Hackney, Londres","62","Studio flat, Balcony+ Great view!","2","0","bajo"
"51.442255095395815","-0.035768716994540165","43101569","8166301","Forest Hill, Londres","76","Spacious Studio flat","0","0","bajo"
"51.44159661044875","-0.14807065972714853","10635935","7740069","Balham, Londres","73","Great Flat in the Heart of Balham","0","0","bajo"
"51.56021895957495","-0.057886810854300766","29277549","9285615","LB of Hackney, Londres","67","Unique character loft in Clapton","0","0","bajo"
"51.55380765969286","-0.05723031097101155","49094008","9472575","LB of Hackney, London Borough of Hackney","70","1/2 bedroom flat in vibrant Hackney","0","0","bajo"
"51.44296082114634","-0.03717627748498753","18554836","7727340","Forest Hill, Londres","70","Large & bright flat available","1","0","bajo"
"51.43181953824551","-0.017546372690956748","37598629","7177514","Bellingham, Londres","62","First floor studio flat","7","4.0","bajo"
"51.54200137827419","-0.20768411555294372","41407388","9338346","LB of Brent, Londres","67","Two bed apartment","0","0","bajo"
"51.577624196861045","-0.09971386189837189","24742211","5475210","LB of Haringey, Londres","46","Cozy 1 Bedroom in North London","6","4.5","bajo"
"51.47449285237738","-0.18856111841314666","737373","187077","Sands End, Londres","39","small flat-no sharing-central-zone2","59","4.5","bajo"
"51.58975020665048","-0.08003099988718516","3006524","9491262","LB of Haringey, Londres","70","Large 1bed Victorian flat near tube","0","0","bajo"
"51.45528480008916","-0.10683874602646741","5318226","7393648","Brixton, Londres","76","Bright, spacious flat in Herne Hill","2","0","bajo"
"51.445954692572116","-0.12881863508855768","26124613","8512111","Streatham, Londres","76","Welcoming and comfortable studio","2","0","bajo"
"51.58297696022214","-0.09883151765569556","36541804","7059184","LB of Haringey, Londres","62","Studio Flat in Harringay","7","5.0","bajo"
"51.605035305197575","-0.12022036903549374","21325885","6486858","LB of Haringey, Londres","70","Stunning garden flat close to tube","0","0","bajo"
"51.43006234425548","-0.34611971814019404","48839979","9420091","LB of Richmond upon Thames, Gran Londres","70","Cosy One Bedroom Flat","0","0","bajo"
"51.554559542990994","-0.22963131364182815","48748699","9399644","LB of Brent, Londres","64","Cute, Light and Bright, Loft Studio","0","0","bajo"
"51.57177772912231","-0.3603879913488477","46372483","9627621","LB of Harrow, Harrow","55","Heartland Welbeck","0","0","bajo"
"51.39883158124478","-0.08227089530882234","35351106","9409799","LB of Croydon, Londres","62","S. Norwood, City & Gatwick 20 mins.","1","0","bajo"
"51.51917209081044","-0.19763919564480345","2866851","582175","Westbourne Green, Londres","70","Nov £45 SALE!  8ppl Notting Hill!","115","4.0","bajo"
"51.59267064885789","-0.03747383525440229","13963129","2728436","LB of Waltham Forest, Londres","68","Modern Studio Close to Tube!","9","5.0","bajo"
"51.598729592140934","-0.3356634053387955","34642287","7817818","LB of Harrow, Harrow","55","Single Studio Ground Floor B","2","0","bajo"
"51.49068554339869","-0.21370997507593223","36558907","6972368","Hammersmith, Londres","76","BRIGHT STUDIO FLAT  WEST KENSINGTON","14","4.5","bajo"
"51.49880298329571","0.12576533303369317","44332596","8416795","LB of Bexley, Londres","56","Feel @ home-away from home!!!","1","0","bajo"
"51.5389460761767","-0.056959333265714965","102885","340935","Hackney, Londres","15","Quiet London Fields 2 Bedroom Home","13","3.5","bajo"
"51.47569199945047","-0.18975185540488823","737373","153372","Sands End, London Borough of Hammersmith and Fulham","70","Studio L- no sharing -central-zone2","16","4.5","bajo"
"51.60161595145424","-0.07133090145653853","43487467","8246254","LB of Haringey, Londres","70","1 bedroom flat, ground floor","0","0","bajo"
"51.5521836983503","-0.11022912331833232","47762403","9224063","LB of Islington, Londres","70","Central London - Studio Appartment","1","0","bajo"
"51.54481555462655","-0.08507306394337073","4222315","8068359","De Beauvoir Town, Londres","70","Cozy 1 Bed in Islington","0","0","bajo"
"51.523999066606386","-0.1695472491412257","16103415","5141273","Lisson Grove, Londres","73","Beautiful Marylebone Flat","1","0","bajo"
"51.42954769517425","-0.13042787595931063","2411231","6697449","Lower Streatham, Londra","70","Lovely Flat in Streatham","1","0","bajo"
"51.451116004998944","-0.13507024391764694","12678519","2599253","Clapham, Londres","71","Bright studio flat in South London!","6","4.5","bajo"
"51.54033745728259","-0.24219455243897461","38540270","7355515","LB of Brent, Londres","62","Converted garage - funky studio","2","0","bajo"
"51.54010766817256","0.04106565889834224","24690979","4790304","LB of Newham, Londres","70","Comfortable 1 bed flat","5","5.0","bajo"
"51.460996231826215","-0.30023840237693317","2500124","8966896","Richmond","68","Modern Studio - Heart of Richmond","0","0","bajo"
"51.422088439897706","-0.17997497240505972","33851869","6690409","Wimbledon, Londres","61","Delightful & comfy 1 bedroom APT","1","0","bajo"
"51.510169812400655","-0.2766727606364026","4261235","810314","Acton, Londres","76","Balcony/overlooking Rugby grou wifi","0","0","bajo"
"51.601655650380266","-0.11156453530672916","39025214","7451787","LB of Haringey, Londres","74","One bedroom flat in Wood Green","3","4.5","bajo"
"51.536469302950955","-0.031928707945770914","35575402","6796691","Bow, Londres","76","1-bedroom near Victoria park","1","0","bajo"
"51.519121656862794","-0.2641166108852199","2581310","2485458","Acton, Gran Londres","76","Stylish flat in West London Zone2","1","0","bajo"
"51.58860861813","-0.16766113306930247","13276788","6382961","LB of Barnet, Londres","70","New flat","1","0","bajo"
"51.548647146895085","-0.19088912174662861","3953341","3763240","Hampstead, Londres","70","1-bed flat 10mins to central Lndn","5","4.0","bajo"
"51.60945943935885","0.005993711867039423","42570791","8059907","LB of Waltham Forest, Londres","74","Ensuite Studio- private entrance","8","5.0","bajo"
"51.400474872941274","-0.26496084497432915","28650375","9362232","RB of Kingston upon Thames, New Malden","70","One Bedroom Flat in Greater London","0","0","bajo"
"51.58366594841871","-0.06824808223019496","8018765","6319621","LB of Haringey, Londres","76","Cozy 1 bedroom split level flat","6","4.5","bajo"
"51.48170181037116","-0.06277015839658873","36701087","7000364","Peckham, Londres","62","Frank's Flat","5","4.5","bajo"
"51.63491234428371","-0.05497655673181012","44804736","8508407","LB of Enfield, Londres","71","New Modern Studio Flat in Edmonton","2","0","bajo"
"51.55563409025148","-0.09127285765035954","6404462","5954306","LB of Islington, Londres","76","Beautiful, quiet victorian apt","4","5.0","bajo"
"51.568642162760305","-0.06790899012742423","41233929","7830076","LB of Hackney, Londres","46","Cosy studio in a lively area","2","0","bajo"
"51.55553121070295","-0.21799298793378752","44242104","8468059","LB of Brent, Londres","70","A place you will really enjoy","7","1.5","bajo"
"51.58828583359363","-0.057932766197689695","13025063","3665555","LB of Haringey, Londres","55","1-bed flat Tottenham nr tube for 3+","2","0","bajo"
"51.40005504238462","-0.07060537832719198","46844397","8999645","LB of Croydon, Londres","71","Bright and spacious 1 bedroom flat","0","0","bajo"
"51.56464651330459","-0.05409775117232639","2489610","504836","LB of Hackney, Londres","55","Studio Flat muy acogedor en Londres","1","0","bajo"
"51.49829209377087","-0.06558029146512472","49780910","9623289","Bermondsey, Londres","71","Room to share in Flat","0","0","bajo"
"51.43271692387977","-0.12706511937645548","3528379","2570015","Streatham, Gran Londres","61","Entire studio Flat with Garden!","2","0","bajo"
"51.53374575325014","0.004682182215388018","1469674","523941","Stratford, Londres","70","very close 2 Olympic stadium & City","8","3.5","bajo"
"51.59801728044061","-0.33382165419260446","34642287","6924533","LB of Harrow, Harrow","70","Spencer Inn double Studio apartment","11","3.5","bajo"
"51.58832521091762","-0.16640000303216373","13276788","7831883","LB of Barnet, Londres","61","Cosy room in a  new flat","1","0","bajo"
"51.57192037712607","-0.13963941088826368","21256288","6633059","LB of Haringey, Londres","46","Small Self Contained Flat","0","0","bajo"
"51.65946940518184","-0.0844991378375977","48508127","9347033","LB of Enfield, Enfield","76","Spacious yet cosy flat","0","0","bajo"
"51.55876903067749","-0.056466398056457937","41915988","9028555","LB of Hackney, Londres","62","2 double rooms in shared gardenflat","0","0","bajo"
"51.452918842483896","-0.35253606273441346","9348137","6756226","LB of Richmond upon Thames, Twickenham","76","Close to Central London & Heathrow","13","5.0","bajo"
"51.436124531396516","-0.151390201190319","17616525","6370194","Tooting Bec, Londres","70","Lovely studio in Tooting","1","0","bajo"
"51.565284388255066","-0.13496195488702925","49202535","9493087","LB of Islington, Londres","62","Confy flat in Archway Zone 2 London","0","0","bajo"
"51.48830625377866","0.11820964180801838","48130417","9265688","RB of Greenwich, Londres","62","3 Bedroom Flat to let)","0","0","bajo"
"51.56798310167885","-0.06388531246701362","2229307","9424745","LB of Hackney, Londres","76","Spacious Newly Decorated 2-BD!","0","0","bajo"
"51.52012292120011","-0.11583901593242166","44099292","8367177","Holborn, Londres","52","room in holborn","0","0","bajo"
"51.497525053923496","0.15423678283286782","38962849","7437765","LB of Bexley, Belvedere","62","Homely 1 Bed Flat","1","0","bajo"
"51.51604091745862","-0.017796788179337417","3106926","626038","Poplar, Londres","70","DESIGNERS working studio / flat","32","5.0","bajo"
"51.56294117723004","-0.09480180450998006","3914389","2490957","LB of Hackney, Gran Londres","73","Private studio flat Stoke Newington","26","4.5","bajo"
"51.54811934791371","-0.133533675244076","19862117","3851677","LB of Camden, Londres","73","Lovely bright 1 bed flat in NW5","3","4.5","bajo"
"51.48937075257727","0.05929651224021172","38777592","7401217","RB of Greenwich, Londres","70","Apartment London","0","0","bajo"
"51.51103789439943","0.05371802415945848","26253536","5093488","LB of Newham, Londres","64","Beckton Studio Flat","21","4.0","bajo"
"51.40659281958672","-0.07743527225123684","39501152","8961091","Crystal Palace, Londres","76","Large 2-bed garden flat for rent","0","0","bajo"
"51.54075350486019","-0.1801815011689097","24875721","7876351","Hampstead, <U+30ED><U+30F3><U+30C9><U+30F3>","67","Large Studio in South Hampstead","1","0","bajo"
"51.373806700747274","-0.11624928404770386","24755658","8947539","LB of Croydon, Croydon","70","1 BED FLAT 20MINS FROM CENTRAL LDN","1","0","bajo"
"51.586791120748366","-0.09296649114589975","2457111","6255273","LB of Haringey, Londres","74","Cozy 1 bed garden flat","2","0","bajo"
"51.56770414571668","-0.05422519000516562","9835591","2372971","LB of Hackney, london","62","Hackney one bed flat","7","4.5","bajo"
"51.410477193033316","-0.053941303617900845","27001468","5218912","LB of Bromley, Londres","76","Cosy Flat on Top Floor, Bromley","1","0","bajo"
"51.58159588848302","-0.02781714522882651","4303202","7013946","LB of Waltham Forest, Londres","62","Cozy in Walthamstow  - VIC LINE!","1","0","bajo"
"51.56193680541659","-0.13529645248319322","17074401","8395644","LB of Islington, Londres","74","CHRISTMAS IN LONDON","1","0","bajo"
"51.439167468813885","0.019005266229685985","30653670","5902663","Grove Park, Londres","61","Comfortable London flat for Xmas!","3","4.5","bajo"
"51.608553226154946","-0.34155685472628744","8363950","6676016","LB of Harrow, Harrow","76","One bed room flat","8","5.0","bajo"
"51.427206123030786","-0.0531535131606923","49240276","5001455","Sydenham, Londres","70","One bed 30 secs from the tube","1","0","bajo"
"51.57812306582702","-0.22752244251139206","6772051","1651273","LB of Barnet, Londres","76","Cosy & Modern Studio Flat in London","45","4.5","bajo"
"51.52978542244018","-0.2012977627589385","3645349","7417963","City of Westminster, Londres","55","Lovely Flat for Xmas-break & NYE","1","0","bajo"
"51.55569168214338","0.01189643845716605","15952625","3394461","LB of Waltham Forest, Londres","71","LONDON BUDGET STUDIO, SLEEPS 2-4.","15","4.0","bajo"
"51.41362185417474","-0.06928815335048649","7621037","1608341","Crystal Palace, Londres","70","Cozy 1 Bedroom Crystal Palace Flat","5","4.0","bajo"
"51.58316172009692","-0.37558959017131693","23814949","4594331","LB of Harrow, Pinner","62","delightful mini-studio for one","5","5.0","bajo"
"51.46806899304104","-0.07371169311690876","190494","550805","Camberwell, Londres","76","Self contained modern flat w garden","35","4.5","bajo"
"51.55596958798142","0.009664120140489712","15952625","3193616","LB of Waltham Forest, Londres","76","LONDON CARY'S BEDSIT, SLEEPS 4.","15","3.0","bajo"
"51.61074500739226","-0.42258562186082244","13498716","9410772","LB of Hillingdon, Northwood","63","Cozy christmas getaway in NW London","0","0","bajo"
"51.54824378396229","0.04290232178526619","35944356","6859174","LB of Newham, Londres","76","Spacious flat, 6min from Stratford.","7","4.5","bajo"
"51.50356374544979","-0.04488695605351774","10974121","8550029","Rotherhithe, Londres","70","Bright Apartment - Canada Water","4","4.5","bajo"
"51.56411989760462","-0.19723476051717195","29931198","5769413","Hampstead, Londres","76","Double size room in Hampstead, NW3","2","0","bajo"
"51.527435029045826","-0.08870413097055448","46405778","8865389","St. Luke's, <U+4F26><U+6566>","55","Really nice studio for you!","0","0","bajo"
"51.538564534296846","-0.07521092044056482","45908103","8753338","Haggerston, Londres","49","Little studio in Hackney, London","0","0","bajo"
"51.54336278104233","-0.116934367185082","8813163","3188327","Islington, Londres","70","A Private Room in N1","0","0","bajo"
"51.64320488416376","-0.13274591711168782","2555724","4265664","LB of Enfield, Londres","62","Bright flat in leafy Oakwood","3","5.0","bajo"
"51.46874455380669","-0.06636565540374612","36143622","6897690","Camberwell, Londres","56","Cosy STUDIO FLAT in LONDON :)","7","4.5","bajo"
"51.52072372270921","-0.21408312734527846","2178169","2630248","Notting Hill, Londres","76","Double room  near Portobello Road","4","4.5","bajo"
"51.47471823914785","-0.18906557381047753","737373","700043","Sands End, Londres","31"," 2 studio flats - central -zone2 ","2","0","bajo"
"51.5800639171365","-0.10334903061063076","10590162","2137085","LB of Haringey, Gran Londres","62","Awesome studio flat","3","3.5","bajo"
"51.41789051860205","-0.13626284735217822","31838473","6136945","Lower Streatham, LONDON","61","STREATHAM.ELEC GATED ART DECO slp8","1","0","bajo"
"51.606884275205914","0.2251371456789566","26611356","8604393","LB of Havering, Romford","62","Modern Space- 23mins to Stratford","0","0","bajo"
"51.51229291766253","-0.18501108993999524","11766544","7695845","Bayswater, Londres","70","Newly refurbished studio flat","0","0","bajo"
"51.55216368243178","-0.03337419397361679","3031944","3110866","LB of Hackney, Londres","67","newly refurbished flat in homerton!","3","5.0","bajo"
"51.47517555338743","-0.058033510385105624","7503697","3302301","Peckham, Londres","70","Modern flat near London bridge","0","0","bajo"
"51.43476041211466","0.11845354002383841","23803231","4591978","LB of Bexley, Sidcup","74","Cosy Maisonnette in a popular area","1","0","bajo"
"51.39182751937918","-0.31356146283126035","2526745","512979","RB of Kingston upon Thames, Surbiton","73","Sunny Surbiton welcomes you","5","5.0","bajo"
"51.39841861208757","-0.07910934192065398","2848656","579283","LB of Croydon, Londres","62","Beautiful garden flat South London","9","5.0","bajo"
"51.517570389516685","-0.05308570297544901","7084815","5123316","Stepney, Londres","76","Bright trendy flat, v close TUBE :","6","4.0","bajo"
"51.5845351674102","-0.09654725556606952","37073038","7071078","LB of Haringey, Londres","74","1 Bed Flat with sunny balcony","2","0","bajo"
"51.43253199859285","-0.10475509836625638","41621821","7894807","West Norwood, Londres","55","Cosy and colourful studio","2","0","bajo"
"51.47260778420836","-0.08510657708007542","19373497","8330048","Camberwell, Londres","76","Trendy Arty entire Flat in London","1","0","bajo"
"51.54367121118898","-0.5254173077131488","47761613","9178569","Iver","71","Self Contained 1 Bedroom Flat","0","0","bajo"
"51.595388029739574","0.022439523826008907","2178622","8209563","LB of Redbridge, Londres","64","CHARMING LOFT IN THE CENTRAL LONDON","0","0","bajo"
"51.571890203406696","-0.14162284880116993","30072781","5796508","LB of Haringey, Londres","62","Private 1 Bedroom Flat and Studio!","0","0","bajo"
"51.4865480521929","-0.15000568299777417","3102518","2548086","Pimlico, Gran Londres","70","Clean, comfortable artists flat.","52","5.0","bajo"
"51.315702067210076","-0.5924218049470065","3714093","3512463","Woking","74","WOKING : SELF-CONTAINED APARTMENT","17","4.5","bajo"
"51.659343738821846","-0.2680695818843732","49635262","9589586","Borehamwood","73","Lovely apartment in Borehamwood","0","0","bajo"
"51.50475573507971","-0.12931758503448387","44356388","9016470","Westminster, Londres","55","We SEARCH a flat in London! Read","0","0","bajo"
"51.70369003607791","-0.03360487553091993","17884979","4634517","Cheshunt","55","Nice flat near shops and railway ","4","4.0","bajo"
"51.53587127350627","-0.14457386567516295","1948760","3138894","Camden Town, Londres","73","Studio, CAMDEN, Central London","7","4.5","bajo"
"51.554346788639386","-0.12839099952535143","17665603","3538237","LB of Islington, London Borough of Islington","70","Quiet flat 30 mins from West End","1","0","bajo"
"51.5457469314067","-0.0765596879250443","12894708","2615918","De Beauvoir Town, Londres","48","Cheap Stay Near Central London F1","3","1.5","bajo"
"51.54709597846765","-0.20341497518416865","22646790","4363250","Hampstead, Londres","39","Cosy studio in Kilburn","2","0","bajo"
"51.52066575810339","-0.22780426270678744","27830342","5674557","LB of Hammersmith & Fulham, Londres","61","Cosy studio + great location/zone 2","3","4.5","bajo"
"51.52646084388056","-0.01933403024277651","34412295","6578246","Bromley-by-Bow, Londres","59","Modern one bedroom apartment in e3.","1","0","bajo"
"51.45584836756464","-0.20939210806462918","10673765","8217656","Wandsworth, Londres","62","Large Flat Close to City Cente","0","0","bajo"
"51.575283153188344","-0.0691965260007086","33791533","6468349","LB of Hackney, Londres","62","1bed flat from 17th Dec to 6th Jan","0","0","bajo"
"51.4848251749139","0.020889426420370782","25390241","4928798","RB of Greenwich, Londres","71","Greenwich London near O2 Arena","36","5.0","bajo"
"51.55763290695692","-0.3024632277370995","1542753","299374","LB of Brent, Wembley","61","Cheap London Wembley apartment !!!!","34","4.5","bajo"
"51.49012348297286","0.06771022835942975","1827371","8518470","RB of Greenwich, Londres","74","Bright and Airy Entire Flat","0","0","bajo"
"51.2441692449487","-0.16321406649729892","28565846","7275582","Redhill","62","Lovely flat near Gatwick and London","5","4.0","bajo"
"51.28316016718597","-0.08849054621670562","44145876","8377044","Caterham","55","Low Cost rental 45 mins from London","1","0","bajo"
"51.650031813865944","0.0577667294954023","39925321","7612818","Loughton","55","Best of both - countryside and tube","2","0","bajo"
"51.68594395783264","-0.17759742981984114","48318964","9401247","Potters Bar","76","First floor flat close to London.","0","0","bajo"
"51.764763122500895","-0.008052730044836053","36817979","9444748","Hoddesdon","68","1 Bedroom flat + sofa bed","1","0","bajo"
"51.81191769429858","0.15083935277936392","1984724","6196103","Sawbridgeworth","76","Easy commute to Stansted or London","11","5.0","bajo"
"51.22358201304299","0.2303166421863435","46651958","8921039","Hildenborough","31","Spacious apartment in Hildenborough","0","0","bajo"
"51.40605223582695","-0.652139078935232","26717322","8548804","Sunninghill","73","Spacious 2 bed Apartment (nr Ascot)","0","0","bajo"
"51.501577298700894","-0.06150297174510871","12466739","2597507","Rotherhithe, Londres","893","Victorian Warehouse, 1847 on Thames","26","5.0","alto"
"51.46555610427882","-0.2126233126937548","47191150","9043488","Putney, Londres","598","Stunning 13th floor   penthouse","0","0","medio-alto"
"51.492266904339914","-0.15484247474975252","28750646","8564696","Belgravia, Londres","1258","Impressive house in Knightsbridge","0","0","alto"
"51.43616764178497","-0.13414179369676943","38662922","7380510","Streatham, Londres","621","Streatham Hill/Balham apartment","0","0","medio-alto"
"51.50769777851378","-0.124352793475076","2125620","9441136","Covent Garden, Londres","1088","Buckingham Snug","0","0","alto"
"51.525251874452564","-0.08515095844447844","7583593","9428612","Shoreditch, Londres","777","5 Star Luxury New York Style Loft","0","0","medio-alto"
"51.490469028559026","-0.16526049748350236","31066062","8230581","Chelsea, Londres","660","Bright Chelsea 2 Bedroom 2.5 Bath","3","4.5","medio-alto"
"51.507290616199874","-0.15097378461821273","3409736","7779358","Mayfair, Londres","664","Deluxe 1-Bedroom Apartment- Mayfair","0","0","medio-alto"
"51.53272633864813","-0.14030797010902502","33283543","7909894","Camden Town, Londres","652","Three-Bedroom Luxury Apartment","0","0","medio-alto"
"51.52300709793714","-0.15984588842068373","50287449","9748557","Lisson Grove, Londres","621","Modern Penthouse Near Regents Park","0","0","medio-alto"
"51.51143481691609","-0.1550978604931244","50281498","9766207","Mayfair, Londres","648","Two bedroom apartment in Mayfair","0","0","medio-alto"
"51.505227578704094","-0.14876983365636265","27628269","9603278","Mayfair, Londres","590","Mayfair Club 1 Bedroom","0","0","medio-alto"
"51.513238716590884","-0.15867518258609864","38577956","7867987","Marylebone, Londres","606","5* Serviced 2-bed Apt Marble Arch","4","5.0","medio-alto"
"51.51389107379703","-0.20690163118207341","30961115","9721974","Notting Hill, Londres","768","LANSDOWNE ROAD, Notting Hill,London","0","0","medio-alto"
"51.49498520698859","-0.09196804779592391","441494","9419288","Walworth, Londres","777","Roof Terrace with 360 views","0","0","medio-alto"
"51.52471235067576","-0.08756751124903536","19697642","8183969","St. Luke's, Londres","777","Luxury Loft Shoreditch London","7","5.0","medio-alto"
"51.49638564904407","-0.16878199417236728","41240216","9362285","Knightsbridge, Londres","777","The perfect Knightsbridge apartment","0","0","medio-alto"
"51.51164062724605","-0.06919108088002357","922398","9541165","Wapping, Londres","699","\"Maria\" apartment, 3B, free wifi","0","0","medio-alto"
"51.508441586209855","-0.1542748111079702","3409736","3586913","Mayfair, Londres","1452","Great Park Lane 1-Bedroom Apartment","0","0","alto"
"51.49703644898805","-0.15594967420970773","31066062","8642735","Belgravia, Londres","660","Amazing Belgravia Chelsea 2Bed WiFi","1","0","medio-alto"
"51.522891510159425","-0.07002216506853148","922398","9058544","Shoreditch, Londres","590","\"Brendan\" apartment, 2B, free wifi","0","0","medio-alto"
"51.48838053682696","-0.16374679919818408","31066062","8228778","Chelsea, Londres","660","Chelsea Garden Square 2 Bed 2 Bath","4","4.5","medio-alto"
"51.52126949494499","-0.07526105939821902","922398","2879464","Whitechapel/Brick Lane, Londres","590","\"Candice\" apartment, 2B, free wifi","1","0","medio-alto"
"51.492051307581065","-0.16195450551964227","30346281","8109470","Chelsea, Londres","2470","Luxury Chelsea Penthouse, 3 BR","1","0","alto"
"51.49236798985185","-0.1563957197058912","33889201","9767596","Belgravia, Londres","1109","4 bed apartment in Knightsbridge","0","0","alto"
"51.50527502549699","-0.14814522642534655","45649670","8853884","Mayfair, Londres","559","Mayfair apartment with amazing view","3","5.0","medio-alto"
"51.48373175176849","-0.2301889338721032","33208909","6372773","LB of Richmond upon Thames, Londres","582","Luxury 5 Bed House - Views & Pool!","11","5.0","medio-alto"
"51.52017794322507","-0.12223381398291412","47973652","9227512","Bloomsbury, Londres","620","CEO Style LUXURY DESIGN 5* WestEnd!","0","0","medio-alto"
"51.51369280295409","-0.13140503330255487","5138169","7257877","Soho, Londres","970","Beautiful apartment in Soho","0","0","alto"
"51.51070986843804","-0.12386867319441107","9031605","7342350","Covent Garden, Londres","854","The Strand London, Luxury Apartment","0","0","alto"
"51.51096297992645","-0.06839790373222944","922398","8380140","Wapping, Londres","590","\"Travis\" apartment, 2B, free wifi","0","0","medio-alto"
"51.4998379301765","-0.08114254145560114","922398","1611513","Southwark, Londres","637","\"Maxmilian\" apartment,3B, free wifi","1","0","medio-alto"
"51.48574472139435","0.014692701879849984","2769034","562967","Greenwich, Londres","621","Modern Apt close to Olympic venues","0","0","medio-alto"
"51.521752065875425","-0.1300708529311087","28371813","9674577","Fitzrovia, Londres","620","MyLady!LARGE LUXURY NEW DESIGN HOME","0","0","medio-alto"
"51.49318031146924","-0.17649413079709472","37296951","9143481","Earls Court, Londres","2328","5* THREE BED PENTHOUSE KNIGHTSBRIDG","0","0","alto"
"51.51210450074852","-0.12452339378329526","2635161","6381658","Covent Garden, Londres","664","4 room  apartment in Covent Garden","12","4.5","medio-alto"
"51.52019696609092","-0.13184246542528433","857701","9753019","Fitzrovia, Londres","620","MyLady!LARGE LUXURY NEW DESIGN HOME","0","0","medio-alto"
"51.49805765630906","-0.13633724026863986","26824347","5185725","Westminster, Londres","645","Stylish Central London Apartment","50","5.0","medio-alto"
"51.44365632000071","-0.21921722217387435","34444057","6584794","Wimbledon, Londres","777","Innerpark Road at Wimbledon","0","0","medio-alto"
"51.50704788084262","-0.1468874775642201","3409736","6238084","Mayfair, Londres","646","Exquisite London 2-Bedroom Ap.","1","0","medio-alto"
"51.53928410481229","-0.14939808631869783","49409585","9539477","Camden Town, Londres","761","Designer Home, 4 bed, Primrose Hill","0","0","medio-alto"
"51.467377358084164","-0.21034709760775422","28750646","9056187","Parsons Green, Londres","575","3 Bedroom Penthouse with River View","0","0","medio-alto"
"51.417550943463446","-0.1530857887944355","871053","311768","LB of Merton, Mitcham","621","5* LUXURIOUS  APART.30 MIN LONDON","10","5.0","medio-alto"
"51.5009815820297","-0.175517424849604","18792841","9036761","Kensington, Londres","699","Luxurious Apartment in Kensington","0","0","medio-alto"
"51.51980332465357","-0.13436443407559462","47914058","9622863","Fitzrovia, Londres","699","3 Bedroom Penthouse Fitzrovia","0","0","medio-alto"
"51.497933162674315","-0.18880898123961778","38644780","7376766","Kensington, Londres","621","Chelsea & Kensington luxury 3 bed","8","4.5","medio-alto"
"51.4908350408065","-0.19011784829906692","3409736","3492892","Earls Court, Londres","630","Prestigious 3-Bedroom Apart. London","17","5.0","medio-alto"
"51.496123859455324","-0.1333525234967356","8348364","9074201","Westminster, Londres","621","Modern 3BR in Central London","0","0","medio-alto"
"51.51001351127693","-0.15557785593260584","3409736","3565228","Mayfair, Londres","3508","Park Lane 2-Bedroom Apartment","0","0","alto"
"51.5080097184381","-0.13086156841848257","13254765","9198057","St. James's, Londres","652","Trafalgar Square Apartment","2","0","medio-alto"
"51.52069736707689","-0.15738772063838302","7258745","8806785","Marylebone, Londres","854","Luxury and Spacious Living","0","0","alto"
"51.49558471471646","-0.17873750471984245","44103276","9343859","Kensington, Londres","620","2 BEDROOM FLAT IN SOUTH KENSINGTON!","0","0","medio-alto"
"51.50571443871501","-0.14818677055677995","45760976","9441341","Mayfair, Londres","621","Mayfair Large Lateral Flat","0","0","medio-alto"
"51.496006258723256","-0.1632979511759891","16229822","3202682","Knightsbridge, Londres","621","2 BR Luxury Flat Knightsbridge","10","4.5","medio-alto"
"51.511004655905104","-0.06881244354178684","922398","8380541","Wapping, Londres","590","\"Tanya\" apartment, 2B, free wifi","0","0","medio-alto"
"51.49315485727906","-0.018967567524774732","2006285","401951","Isle of Dogs, Londres","559","2 Bed Luxury Waterside Apartment","0","0","medio-alto"
"51.514741571309045","-0.15867677207992822","38577956","8436078","Marylebone, Londres","606","5* Serviced 2-bed flat Marble Arch","1","0","medio-alto"
"51.517611921788564","-0.16137350653968915","18046946","7586662","Marylebone, Londres","737","MARYLEBONE NEW APARTMENT","0","0","medio-alto"
"51.49574694115705","-0.1609419650147762","1508360","8848231","Knightsbridge, Londres","816","Somptuous pad in Cadogan Square","1","0","alto"
"51.49157715875184","-0.19180937731928163","3409736","4714943","Earls Court, Londres","676","Earls Court Road 4-Bedroom Apt.","4","5.0","medio-alto"
"51.5143888732997","-0.12666877523882958","9786697","2265730","Covent Garden, Gran Londres","559","Super-central Covent Garden 2Bed","7","4.5","medio-alto"
"51.486128054452905","-0.17593196725513693","30961115","6583104","Chelsea, Londres","614","Vale street, Chelsea, London","4","5.0","medio-alto"
"51.50656412205419","-0.1415822744070684","37296951","9054687","St. James's, Londres","699","2 BEDROOM APT GREEN PARK SW1A","0","0","medio-alto"
"51.50632396611291","-0.14940947997237344","37296951","9056556","Mayfair, Londres","854","2 Bedrooms Hertford Street Mayfair","0","0","alto"
"51.51498534050714","-0.1588637312320409","38577956","7363006","Marylebone, Londres","699","5* Serviced 3-bed flat Marble Arch","2","0","medio-alto"
"51.61474448931025","-0.15163426947066108","26536263","9214336","LB of Barnet, Londres","761","Luxury flat for 16 or more person","0","0","medio-alto"
"51.52144484204206","-0.14526456846176344","49511390","9563202","Fitzrovia, Londres","699","New, Spacious 3 Bed Flat Marylebone","0","0","medio-alto"
"51.52078664396495","-0.1328330233935551","5595334","9571747","Fitzrovia, Londres","620","MyLady!LARGE LUXURY NEW DESIGN HOME","0","0","medio-alto"
"51.49732310165298","-0.16666537451236293","31066062","7618324","Knightsbridge, Londres","970","Amazing large 3 Bedroom 2 Bath AC","2","0","alto"
"51.49255730848311","-0.17640259309433987","7112800","9023676","Earls Court, Londres","611","Onslow Sq - 2 Beds Flat South Ken","0","0","medio-alto"
"51.49196791141701","-0.16411058279845195","7149835","1316169","Chelsea, Londres","1180","4 AVENUE COURT, DRAYCOTT AVENUE.","16","4.5","alto"
"51.406667208374714","-0.3398958024654877","439154","7928480","LB of Richmond upon Thames, East Molesey","559","Upper garden Suite at Craven House","0","0","medio-alto"
"51.5015936966968","-0.09276910201748327","33435155","6473203","Bermondsey, Londres","621","(TB00) Large Flat in London Bridge","4","4.0","medio-alto"
"51.49731021388646","-0.16542246797521343","37296951","9054843","Knightsbridge, Londres","1009","LUXURY 2 BEDROOM APT KNIGHTSBRIDGE","0","0","alto"
"51.5169427923098","-0.12457285669528734","1679730","1491129","Bloomsbury, Londres","621","Spacious Loft Apartment Oxford St","16","4.0","medio-alto"
"51.500577229098624","-0.07885536638768408","9832548","9058724","Bermondsey, Londres","699","Tower Bridge Area","2","0","medio-alto"
"51.496139845749205","-0.15205760385939412","49169863","9486613","Belgravia, Londres","777","2 Bed Apartment - Belgravia","0","0","medio-alto"
"51.505105907885486","-0.1939676607964447","20014396","6281299","Holland Park, Londres","932","House near Kensington Palace!!","0","0","alto"
"51.489486797320765","-0.19188080565619925","3409736","3548451","Earls Court, Londres","570","Royal 3-Bedroom Apartment London ","10","4.5","medio-alto"
"51.50823241839341","-0.15392961406990913","3409736","3586730","Mayfair, Londres","1917","Park Lane Deluxe 1-Bedroom Apt.","0","0","alto"
"51.497416919910535","-0.16478167658058862","40855564","9291064","Knightsbridge, Londres","1476","Knightsbridge 3 Bedroom Apartment","0","0","alto"
"51.51489563338977","-0.12466792867246035","1679730","1753076","Covent Garden, Londres","621","Duplex in Westminster, Gorgeous!","10","4.5","medio-alto"
"51.52510571498531","-0.10058231345158038","22237095","9182220","Clerkenwell, Londres","621","Lovely Three Bedroom Penthouse","0","0","medio-alto"
"51.52600452896749","-0.07927737310984793","1764906","412059","Shoreditch, Londres","768","HUGE Shoreditch Warehouse 3 DBL BDR","39","4.5","medio-alto"
"51.50589423789999","-0.14819451552591778","15712218","6687271","Mayfair, Londres","777","Top luxury amazing 3-bed 3-bath fla","0","0","medio-alto"
"51.544443500930676","-0.05622366976849813","46495527","8909765","Hackney, Londres","621","2 bedroom flat in the Arthaus","0","0","medio-alto"
"51.49718076315194","-0.15362400819930574","28750646","8677894","Belgravia, Londres","1600","Magnificent penthouse in Belgravia","0","0","alto"
"51.519082384382465","-0.07158604451417831","1802713","9612572","Whitechapel/Brick Lane, Londres","697","Huge/Stylish, City-Centre Apartment","0","0","medio-alto"
"51.50610442860171","-0.12192747308038569","1679730","577744","Covent Garden, Londres","1103","Riverside Westminster Penthouse ","17","4.5","alto"
"51.479894899240925","-0.12064013300040372","33435155","6417896","South Lambeth, Londres","777","(PL00) Great Flat in Vauxhall/Oval","0","0","medio-alto"
"51.49180446373827","-0.19033085076908435","46538521","9020680","Earls Court, Londres","565","The Mansions 4 Bedroom","0","0","medio-alto"
"51.52190738828365","-0.14407642844579296","39509715","8720632","Fitzrovia, Londres","1241","Stunning Penthouse Duplex +Terrace","1","0","alto"
"51.47255106509326","-0.20423508825192885","36196974","6907168","Parsons Green, Londres","652","Spacious 2br Duplex Great Location!","7","5.0","medio-alto"
"51.49116124030054","-0.18945090980261467","46538521","8895891","Earls Court, Londres","674","The Mansions 3 Bedroom/3 Bathroom","0","0","medio-alto"
"51.52363194708131","-0.1421304126758298","39509715","8717791","Fitzrovia, Londres","775","Luxurious & Elegant 3 beds 2 baths","1","0","medio-alto"
"51.5093467947773","-0.10384479164973172","2624588","4309417","Londres","730","London's finest riverside apartment","14","5.0","medio-alto"
"51.53063247565131","-0.17974859940436697","5408954","1066838","St. John's Wood, Londres","775","Lxy 3dbl Bed/Bath GDN APT Brand New","10","5.0","medio-alto"
"51.50570902505615","-0.14883593640660397","22638933","4361206","Mayfair, Londres","652","Two Bedroom Mayfair Apartment","0","0","medio-alto"
"51.51927975551166","-0.16591086953078996","38452566","7340251","Marylebone, Londres","603","4 DOUBLE BDRM appt, Heart of London","13","4.5","medio-alto"
"51.527171699210705","-0.19318432464648935","6039977","5804966","City of Westminster, Londres","590","5-BEDROOM Flat next to REGENTS PARK","0","0","medio-alto"
"51.49812708958012","-0.1679807654104157","31066062","6520794","Knightsbridge, Londres","1079","Amazing Knightsbridge 3 Bed 3 Bath","4","4.5","alto"
"51.40578441764378","-0.3399501150441655","439154","7928631","LB of Richmond upon Thames, East Molesey","559","Lower Garden Suite at Craven House","0","0","medio-alto"
"51.495315047276755","-0.19005664847824102","33889201","8514329","Kensington, Londres","693","4 Bed in Kensington, Lexham Gardens","0","0","medio-alto"
"51.523393251726226","-0.07715578429771998","4698005","8297950","Shoreditch, Londres","699","Luxury Urban Living","2","0","medio-alto"
"51.51318229019781","-0.12679994751080262","25727709","7643355","Covent Garden, Londres","559","LONG ACRE HOUSE","0","0","medio-alto"
"51.50178215900955","-0.09161299444349948","47058017","9012128","Bermondsey, Londres","590","Empire Square, London 2BR","0","0","medio-alto"
"51.49351858681017","-0.10975478875109636","2673333","1040752","Kennington, Londres","1297","Families/Groups/Stag/Hen Sleeps 21","11","4.5","alto"
"51.50246254428448","-0.18766188923724597","573623","3568534","Kensington, Londres","996","Luxury 2 Ensuite Bedroom Flat-CHF14","0","0","alto"
"51.498609148398884","-0.16540072908965858","40855564","8843215","Knightsbridge, Londres","994","Knightsbridge Apartment & Terrace","0","0","alto"
"51.489916891525105","-0.1792427345034707","30961115","7020036","Earls Court, Londres","649","Onslow gardens, South Kens, London","1","0","medio-alto"
"51.5229634231824","-0.1418539829130317","39509715","8719556","Fitzrovia, Londres","775","Stunning 3 Beds 2 baths Marylebone","2","0","medio-alto"
"51.516643417646975","-0.19095661829822402","11087767","9104331","Westbourne Green, Londres","567","Beautiful 4 Bed Bayswater Apartment","0","0","medio-alto"
"51.51693754324769","-0.15208744659241588","5374369","981335","Marylebone, Gran Londres","699","Luxury Living. Ultimate Location.","52","4.5","medio-alto"
"51.491449202234","-0.12685337737439872","904192","9040182","Millbank, Londres","7766","Millbank Media Centre","0","0","alto"
"51.50573642818305","-0.1495463726375673","37296951","8642743","Mayfair, Londres","901","3 BEDROOMS PARK TOWERS MAYFAIR W1K","0","0","alto"
"51.5041620799252","-0.14975452202761666","9031605","5169536","Mayfair, Londres","932","Two double bedroom Mayfair London","1","0","alto"
"51.511595784787204","-0.12890942353201026","1679730","1487608","The West End, Londres","621","Spacious Leicester Square Apartment","36","4.5","medio-alto"
"51.52070169214785","-0.13596216919210793","26038203","8679855","Fitzrovia, Londres","584","City Marque Oxford House Penthouse","0","0","medio-alto"
"51.48146760110434","-0.14999744260966938","1429305","464370","Nine Elms, Londres","590","Modern Chelsea Riverside Apartment","22","4.0","medio-alto"
"51.49720987896178","-0.16825738251488676","15712218","7908321","Knightsbridge, Londres","699","Traditional 3-bed next to Harrods","1","0","medio-alto"
"51.512075751163735","-0.15212806399944614","15712218","6335386","Mayfair, Londres","932","Designer 5-bed in Mayfair","1","0","alto"
"51.48434757315289","-0.21471754030227408","11087767","8374393","Hammersmith, Londres","837","Quintessential City Accommodation","0","0","alto"
"51.51803425740731","-0.14146441528184592","2635161","2535054","Fitzrovia, Gran Londres","565","Premium 2 bedrom near Oxford Street","1","0","medio-alto"
"51.493251442207146","-0.16834103378864892","24577201","7505902","Knightsbridge, Londres","621","Harrods Apartments 161","0","0","medio-alto"
"51.525360236718164","-0.08123266350794103","9124807","8533448","Shoreditch, Londres","559","Appartment in Hoxton. East Central","0","0","medio-alto"
"51.52320454169489","-0.1026039355633254","922398","6892092","Clerkenwell, Londres","637","\"Allison\" apartment, 3B, free wifi","0","0","medio-alto"
"51.49344160089448","-0.11091832493135581","2673333","1064494","Kennington, Londres","567","Families/Groups/Stag/Hen Sleeps 9","5","4.5","medio-alto"
"51.515057903264044","-0.12265330429640613","296376","619879","Covent Garden, Londres","637","Covent Garden 4 Bedroom Upto 10 ","14","4.0","medio-alto"
"51.4961814397949","-0.1826331141225389","14746850","7796543","Kensington, Londres","582","Beautiful 3 bed Apt in Kensington","0","0","medio-alto"
"51.51853373733287","-0.06857854664477404","26038203","9034921","Whitechapel/Brick Lane, Londres","567","City Marque Spitalfields 3 bedroom","0","0","medio-alto"
"51.52232154439347","-0.15936225481414898","33985517","6501941","Lisson Grove, Londres","699","Beautiful 3 bedrooms in Marylebone","5","3.5","medio-alto"
"51.512878204212164","-0.07070518788154198","922398","3253359","Whitechapel/Brick Lane, Londres","637","\"Marco\" apartment, 3B, free wifi","6","4.5","medio-alto"
"51.5007302487458","-0.16095446189205928","36599093","6980076","Knightsbridge, Londres","621","2 bedroom apartment near Harrods.","2","0","medio-alto"
"51.520683184413045","-0.12303493585306542","857701","9059212","Bloomsbury, Londres","775","THE ELEMENTS! TOP DeLUXE CEO DESIGN","0","0","medio-alto"
"51.511317209233034","-0.07286903911907087","922398","5485706","City of London, Londres","590","\"Tatiana\" apartment, 2B, free wifi","0","0","medio-alto"
"51.45193235473846","-0.29915873248396846","44344631","8419519","Richmond","777","2 Bed Luxury Flat on Richmond Hill","0","0","medio-alto"
"51.49158315985198","-0.12509172947170805","904192","9037495","Millbank, Londres","3883","View Studios","0","0","alto"
"51.51881417945026","-0.12668964617626352","47973652","9306602","Bloomsbury, Londres","761","XFACTOR!5-STAR SUITE PRIME LOCATION","0","0","medio-alto"
"51.49234040178491","-0.12550208009218008","904192","9040919","Millbank, Londres","3883","Belgravia Suites - Skyloft","0","0","alto"
"51.49915696392113","-0.16521156494602027","15712218","6698782","Knightsbridge, Londres","917","Bright 4-bed opposite Harrods","1","0","alto"
"51.4977881768539","-0.18678533007813122","30717599","5914961","Kensington, Londres","567","Kensington Retreat","3","4.5","medio-alto"
"51.52630685476814","-0.05811951000491646","466142","85159","Bethnal Green, Londres","768","Awesome Huge Loft in Bethnal Green","1","0","medio-alto"
"51.477297510842064","-0.2018979088552957","7922860","3318358","Fulham, Londres","707","London Luxury 4 Less-4BR, 6BD-3BT ","3","4.0","medio-alto"
"51.49653460969232","-0.18670331000456647","30961115","5964237","Kensington, Londres","633","Cornwall gardens","6","5.0","medio-alto"
"51.49403897056562","-0.10976275380779138","2673333","786751","Kennington, Londres","621","Superb Suite London SE11 Sleeps 10","26","4.5","medio-alto"
"51.52048988927949","-0.10949986877977143","5436806","5267844","Clerkenwell, Londres","699","Pianist's Glass Home Central London","3","5.0","medio-alto"
"51.554317587278994","-0.19112699823176163","22476779","5488861","Hampstead, Londres","1864","Large Home w Hotel Chic ","1","0","alto"
"51.500444577930416","-0.19478327265671327","7258745","6754957","Holland Park, Londres","699","Luxury Spacious, Kensington","4","4.5","medio-alto"
"51.520079215136356","-0.11793253181544018","22237095","7140927","Bloomsbury, Londres","621","Three Bedroom Penthouse","1","0","medio-alto"
"51.49158334534117","-0.1250854727609672","904192","9041041","Millbank, Londres","3883","Belgravia Suites - Altitude 360","0","0","alto"
"51.517113985023556","-0.16364458312861696","5970915","8698871","Marylebone, Londres","699","Stylish 5bed flat in Central London","1","0","medio-alto"
"51.508606740485064","-0.14622289090446888","46538521","9306741","Mayfair, Londres","598","Curzon Street 3 Bedroom/ 2 Bathroom","0","0","medio-alto"
"51.5026524216914","-0.1832002219283372","39091155","7462916","Londres","582","Hyde Park Kensington","2","0","medio-alto"
"51.48476060606869","-0.1607583012700259","24994343","5724748","Chelsea, Londres","663","Tite Street B","0","0","medio-alto"
"51.464718378083646","-0.1737175951287903","19390364","7760260","Battersea, <U+4F26><U+6566>","621","A fashion studio with kitchen","0","0","medio-alto"
"51.405407100288514","-0.34134908658442187","439154","7928024","LB of Richmond upon Thames, East Molesey","559","Court Suite at Craven House","0","0","medio-alto"
"51.485563467696664","-0.21736548587550295","2804661","569871","Hammersmith, Londres","575","3 double-bedroom flat, Hammersmith","0","0","medio-alto"
"51.521489540698994","-0.10860982194899946","922398","5517682","Clerkenwell, Londres","637","\"Sharon\" apartment, 3B, free wifi","1","0","medio-alto"
"51.51058191471933","-0.2060940429186458","339992","613404","Notting Hill, Londres","777","Notting Hill beautiful whole apt","4","5.0","medio-alto"
"51.4785774555899","-0.1468065378700013","22045559","4249146","Nine Elms, Londres","602","Luxury two bed and two bath","0","0","medio-alto"
"51.49776186038493","-0.1597115425732506","3081803","857938","Knightsbridge, Gran Londres","838","Central London ,light and space ","10","5.0","alto"
"51.529060601355184","-0.1262842026817753","801579","2805954","Somers Town, Londres","606","Unique St Pancras Clocktower Apt","9","5.0","medio-alto"
"51.500816508044764","-0.0950139039506232","651184","548429","Southwark, Londres","777","One of a Kind Penthouse","0","0","medio-alto"
"51.4815038689113","-0.12348096185240799","14316016","2798959","South Lambeth, Londres","777","Luxury Apartment on Thames River","8","5.0","medio-alto"
"51.43727638628047","-0.33490037869532147","10246910","2922856","LB of Richmond upon Thames, Twickenham","730","RWC Duplex Apartment in Twickenham","0","0","medio-alto"
"51.49222222364372","-0.14524108416279502","24923380","4843011","Pimlico, Londres","736","2 Habitaciones Duplex de Lujo","3","5.0","medio-alto"
"51.515870866179284","-0.122201477618356","1679730","893505","Covent Garden, Londres","621","Beautiful Penthouse in TheatreLand","6","4.0","medio-alto"
"51.542536791030834","-0.15416779308527884","15574347","3580685","Primrose Hill, Londres","699","Luxury flat in Camden/Primrose Hill","1","0","medio-alto"
"51.56195755472019","-0.13769427011952376","4608727","6822660","LB of Islington, Londres","702","3 rm flat: Islington, North London","3","4.5","medio-alto"
"51.508158953921516","-0.14518637109880214","3409736","5940134","Mayfair, Londres","598","Exclusive 2-Bedroom Apt. in Mayfair","0","0","medio-alto"
"51.5165333084217","-0.12413741869743282","296376","4936402","Covent Garden, Londres","621","Covent Garden 3 Bedroom sleeps 8","5","4.5","medio-alto"
"51.51270785229108","-0.1407893002153208","2635161","684167","Mayfair, Londres","570","2 bedroom apartment I. in Mayfair","5","4.5","medio-alto"
"51.49208296717968","-0.10988989405325096","2673333","787839","Kennington, Londres","730","Stylish Suite London SE11 Sleeps 12","17","4.5","medio-alto"
"51.478633980124634","-0.1458555537618555","22045559","4249182","Nine Elms, Londres","640","Large Deluxe two bed, two bath","0","0","medio-alto"
"51.50531051988077","-0.14738653850429623","27628269","5332837","Mayfair, Londres","590","Mayfair Club 1 Bedroom Apartment","1","0","medio-alto"
"51.50901062508782","-0.15403419932450782","15712218","7042867","Mayfair, Londres","932","Stunning 4-bed flat near Hyde Park","1","0","alto"
"51.45572414427205","-0.3172281460062652","36773266","7015045","LB of Richmond upon Thames, Twickenham","777","3 Bed Flat w balcony ideal for RWC","0","0","medio-alto"
"51.50877426529531","-0.15534381282146126","3409736","3565157","Mayfair, Londres","1755","Park Lane 1-Bedroom Apartment","0","0","alto"
"51.406642179247655","-0.3394915367898557","439154","7928327","LB of Richmond upon Thames, East Molesey","559","Park Suite at Craven House","0","0","medio-alto"
"51.51514782365036","-0.12304543497012761","2635161","728237","Covent Garden, Londres","666","2bedroom,2bathroom in Covent Garden","4","4.0","medio-alto"
"51.50110008493635","-0.18618996163527526","573623","3562155","Kensington","2425","Luxury 3 Ensuite bedroom Flat-CHF 3","0","0","alto"
"51.49253092676779","-0.11025361740038385","2673333","1143658","Kennington, Londres","1918","Families/Groups/Stag/Hen Sleeps 31","2","0","alto"
"51.49679339728346","-0.15584861429062188","2635161","1025986","Belgravia, Londres","657","2-Bedroom apartment Knightsbridge","1","0","medio-alto"
"51.51601952310681","-0.17495612966289145","2998895","605497","Paddington","559","C. London - 15mins from HRW!","33","4.5","medio-alto"
"51.512888030261706","-0.1632485626028709","15712218","5759745","Paddington, Londres","621","Amazing 3-bed 200 sqm flat Hyde par","1","0","medio-alto"
"51.50516096148282","-0.14756422361072863","1429305","6863503","Mayfair, Londres","746","Executive Suite - Mayfair","1","0","medio-alto"
"51.47096825098463","-0.1468825912839694","20256140","3910679","Battersea, Londres","621","Stunning loft style appartment ","0","0","medio-alto"
"51.51986612502652","-0.16649883311758928","2635161","1030221","Marylebone, Londres","618"," 2-Bedroom apartment in Marylebone","4","4.5","medio-alto"
"51.51628695030721","-0.1981460121139409","9421685","2015789","Westbourne Green, Gran Londres","699","Luxury Notting Hill Garden Flat","46","4.5","medio-alto"
"51.51614756192351","-0.15375382909800941","35057345","6697153","Marylebone, Londres","699","Luxury 2B 2BA flat Nr Oxford Street","8","4.5","medio-alto"
"51.523817387175995","-0.17843726363027246","2635161","728243","Paddington, Londres","664","Large House near Edgware Road","3","4.5","medio-alto"
"51.48625485940552","-0.13340007988922956","20655686","3985146","Pimlico, Londres","699","A beautiful flat by the river","5","5.0","medio-alto"
"51.4771407526394","-0.14636483366968056","22045559","4249409","Nine Elms, Londres","744","Penthouse two bed and two bath","0","0","medio-alto"
"51.44691761136688","0.0003803565755758232","4668656","882380","Hither Green, Londres","1864","Modern Apartment Hotel Max. 30.pax","1","0","alto"
"51.48023512087652","-0.1483357155065875","2878529","6197768","Nine Elms, Londres","737","Spacious Battersea Three Bedroom","6","4.5","medio-alto"
"51.510695792722004","-0.13249815710187385","1830359","533943","Soho, Gran Londres","1400","LUXURY APT. NEAR BUCKINGHAM PALACE","1","0","alto"
"51.512588274313785","-0.12605729230873486","25727709","7643539","Covent Garden, Londres","746","LONG ACRE APARTMENT 3","5","4.5","medio-alto"
"51.511447008782305","-0.11804444261647502","20219486","4328591","The West End, Londres","559","The Strand Two Bedroom Apartment","0","0","medio-alto"
"51.50691109746475","-0.14535088017560305","6224755","2055965","Mayfair, Gran Londres","777","Mayfair Beautiful Flat - Green Park","12","3.5","medio-alto"
"51.50232249406513","-0.15288270487483577","544270","8217209","Belgravia, Londres","2800","9 Million £ Private Mews Belgravia","0","0","alto"
"51.511467144562744","-0.15579934623838745","15903496","5446403","Mayfair, Londres","621","Luxury & Indulgence Mayfair London ","0","0","medio-alto"
"51.520305925525335","-0.15020574122378544","7258745","7122113","Marylebone, Londres","652","Modern apartment","0","0","medio-alto"
"51.48829587584096","-0.1350590547505827","10331361","2105921","Pimlico, Gran Londres","660","Clean & Safe Pimlico Spa Sleeps 7","2","0","medio-alto"
"51.500415620741364","-0.16105556844317148","1790909","559371","Knightsbridge, Londres","970","HUGE LUXURY 3BED KNIGHTSBRIDGE FLAT","19","5.0","alto"
"51.51658524389299","-0.16039029838578975","24109936","4669968","Marylebone, Londres","590","Central London, Marble Arch","2","0","medio-alto"
"51.501538543567506","-0.16403606966445924","16309304","6090469","City of Westminster, Londres","557","Beautiful 2-Bedroom Flat Hyde Park","2","0","medio-alto"
"51.521241434242796","-0.0946846441814055","1829486","6971912","St. Luke's, Londres","750","ARCHITECT 3LEVEL, 3BEDROOM FLAT","2","0","medio-alto"
"51.52560842915327","-0.15738548926514037","24444659","5110675","Marylebone, Londres","722","3 Flats 1 Building - 12+ people!","3","4.5","medio-alto"
"51.49231617964684","-0.1627633539192208","14746850","6347955","Chelsea, Londres","730","Luxury 2 bed Junior Apt in Chelsea","0","0","medio-alto"
"51.49104038838127","-0.16126253754173522","14746850","6347992","Chelsea, Londres","730","Luxury 2 bed Apr Senior in Chelsea","0","0","medio-alto"
"51.49204740661522","-0.16617425160288032","54987","2023832","Chelsea, Londres","657","Chelsea 02 Bed Luxury Apartments","0","0","medio-alto"
"51.4899756919076","-0.16520127893372405","14746850","3923265","Chelsea, Londres","590","Lovely 2 bed Apt in Chelsea","3","4.5","medio-alto"
"51.51322240590033","-0.1758453245587481","3409736","6023447","Paddington, Londres","603","Family 2-Bedroom Hyde Park Apt.","0","0","medio-alto"
"51.49511214876843","-0.17423050722335023","4657735","3930824","Earls Court, Londres","598","Lux 3 bed Chelsea flat near museums","5","4.5","medio-alto"
"51.513897267957965","-0.178712950941646","20219486","4328659","Paddington, Londres","559","Hyde Park Three Bedroom Apartment","0","0","medio-alto"
"51.524670521449075","-0.08143039122826579","24547066","4757009","Shoreditch, Londres","777","Spacious Shoreditch Warehouse","11","4.5","medio-alto"
"51.53018283611786","-0.0856778104872861","10564492","4523203","Shoreditch, Londres","582","Large 5 Bed in the Heart of London","21","4.0","medio-alto"
"51.52612471786234","-0.08058787689401856","12739263","5145517","Shoreditch, Londres","621","Paradise in Shoreditch ","4","4.5","medio-alto"
"51.52526334366352","-0.07891108669648045","999125","6788395","Shoreditch, Londres","768","SUPERLATIVE SHOREDITCH PENTHOUSE","0","0","medio-alto"
"51.526442273541655","-0.07945390772646009","1764906","412058","Shoreditch, Londres","768","HUGE Shoreditch Warehouse 3 DBL BDR","25","4.5","medio-alto"
"51.503047980586516","-0.1874068742164028","573623","3562368","Kensington","2468","Luxury 5 Bed Ensuite Flat-CHF5 ","0","0","alto"
"51.49827083662869","-0.1865686743939839","30961115","6961287","Kensington, Londres","600","Launceston place, South Ken, London","3","5.0","medio-alto"
"51.50265412237894","-0.1880728695463314","573623","3561860","Kensington","2468","Lovely 5 Ensuite Bedroom Flat-CHF 6","0","0","alto"
"51.479987176802105","-0.1698706737977954","25892386","5024089","Battersea, Londres","777","Luxury 3 Bed Flat w/Pool, Riverside","0","0","medio-alto"
"51.52989943497189","-0.1777833999846477","3636203","5020749","St. John's Wood, Londres","777","STUNNING LUXURY PENTHOUSE","0","0","medio-alto"
"51.49441207775171","-0.18743224229454444","3409736","5636895","Kensington, Londres","579","Deluxe 2-Bedroom Apt. in Kensington","1","0","medio-alto"
"51.526007071226644","-0.1847587883521313","3636203","943765","Maida Vale, Londres","621","BEAUTIFUL LUXURY APARTMENT","6","5.0","medio-alto"
"51.54191798105348","-0.1641868376216287","338851","6868537","Primrose Hill, Londres","606","Designer flat in Primrose Hill","0","0","medio-alto"
"51.46595618830008","-0.16301261380011944","584078","4956866","Battersea, Londres","1242","4 bed loft in converted school","11","5.0","alto"
"51.501967155408984","-0.21622076553791425","4264926","811020","Holland Park, Londres","567","Funky Mews Apartment - Holland Park","1","0","medio-alto"
"51.48223440762301","-0.018850826208427932","26779930","8418376","Deptford, Londres","777","Greenwich Sub Penthouse River Views","0","0","medio-alto"
"51.361061116408464","-0.3482025952054484","439154","1548609","Claygate","559","Stunning 3 bedroom serviced flat","0","0","medio-alto"
"51.58798270254618","-0.07832050183753832","295707","61156","LB of Haringey, Londres","77"," Self-Catering Loft-Studio Apt","168","4.5","bajo"
"51.52342570386136","-0.11879936192730786","24295702","8568927","Bloomsbury, Londres","77","Large flat in heart of Bloomsbury","10","3.5","bajo"
"51.55098478202104","-0.14087530469883155","21690253","4181001","LB of Camden, Londres","77","Cute, Cosy Studio Near Camden","9","4.0","bajo"
"51.51486535219907","-0.1810716105078201","23977491","7557170","Bayswater, Londres","77","Single Apt with In Paddington P14","19","3.5","bajo"
"51.515620543181626","-0.05439040370583181","42499239","8047691","Stepney, Londres","77","Private & clean Semi-studio Bedsit","3","2.5","bajo"
"51.383287807198656","-0.0822093275503513","30629100","5975492","LB of Croydon, Croydon","77","07 Unbeatable value in South London","12","4.5","bajo"
"51.58089935369431","-0.23357505802788728","25064065","4872285","LB of Barnet, Londres","77","Amazing Studio Flat","40","4.5","bajo"
"51.55546713107456","-0.14209264714685718","884716","7290745","Hampstead, Londres","77","Lovely Sunny Flat near Camden Town","3","5.0","bajo"
"51.560366327016176","-0.09619350505760102","45203939","9470249","LB of Islington, Londres","77","Spacious modern  London apartment","0","0","bajo"
"51.48898403073208","-0.14989077091530467","21453118","5782950","Pimlico, Londres","77","Studio en plein centre de Londres ","36","4.5","bajo"
"51.52636644441994","-0.19635504583260743","17185191","3407613","City of Westminster, Londres","77","Beautiful Penthouse, Little Venice","36","4.0","bajo"
"51.42595286074696","-0.13678160056148264","38929976","7431987","Lower Streatham, Londres","77","Bright and spacious 1 bedroom flat","6","5.0","bajo"
"51.45652338602752","-0.0038328941575427977","15734299","9253039","Lee, Londres","77","Cozy apt 15 mins from London Bridge","2","0","bajo"
"51.48573725246658","-0.09539293886459849","9451709","1856036","Walworth, Londres","77","MINI STUDIO ","53","4.0","bajo"
"51.51922751945185","-0.16126683019862548","36126664","6894845","Marylebone, Londres","77","Studio/room flat with own entry.","26","4.5","bajo"
"51.54839676813058","-0.19245374075105867","28287440","9705742","Hampstead, Londres","77","Studio, Garden Flat in Zone 2","0","0","bajo"
"51.54930154185701","-0.09425612605051238","14632024","5818786","LB of Islington, Londres","77","Neat & Cosy Studio ","4","4.5","bajo"
"51.54651510854277","-0.22909147773207839","1914283","7353948","LB of Brent, Londres","77","Small Studio in zone 2 London #REDD","4","4.5","bajo"
"51.51912947245708","-0.019180224234636046","6270173","9004594","Bromley-by-Bow, Londres","77","Immaculate 1 Bed Apartment! Zone 2","0","0","bajo"
"51.43946175005222","-0.05518542998276252","3410276","9708770","Forest Hill, Londres","77","Spacious homely flat for new year","0","0","bajo"
"51.596844668294345","-0.11443672562678284","36541804","8398054","LB of Haringey, Londres","77","Studio Flat in Wood Green","0","0","bajo"
"51.443715250169966","-0.18577937383113352","21760819","9707430","Earlsfield, Londres","77","Spacious, 1 bed garden flat","0","0","bajo"
"51.550427612534165","-0.19254708175433058","35062597","6907280","Hampstead, Londres","77","Very well presented new STUDIO FLAT","2","0","bajo"
"51.56359754718137","-0.1272680078845066","47820176","9192273","LB of Islington, Londres","77","Cosy Bright & Comfy 1 Bedroom Flat","0","0","bajo"
"51.4180285167704","-0.07531724076637544","1556835","9488991","Crystal Palace, Londres","77","Period flat near park & station","1","0","bajo"
"51.54067282850755","-0.13373803829967978","47631609","9147823","Kings Cross, Londres","77","Flat @ Camden Town - Central London","0","0","bajo"
"51.46613514161245","-0.10044154839588822","42609179","8067125","Stockwell, Londres","77","Lovely apartment in the city","12","4.5","bajo"
"51.458245611367396","-0.2188751819535034","31125982","5994775","Putney, Londres","77","Christmas in london?","0","0","bajo"
"51.56516297643581","-0.11235626948093029","9780923","9708404","LB of Islington, Londres","77","Lovely Victorian garden flat","0","0","bajo"
"51.486011398404386","-0.07113053879642045","13876560","9570043","Bermondsey, Londres","77","Spacious Homely Studio Flat","0","0","bajo"
"51.49186631468371","-0.08065908207872188","46074115","8950437","Bermondsey, Londres","77","Stunning Apartment well located SE1","5","4.0","bajo"
"51.503659460574696","0.033308319042314925","41811437","7929830","LB of Newham, Londres","77","cosy flat near London city airport","0","0","bajo"
"51.579104199121346","-0.08223086872758852","5571167","8429523","LB of Haringey, Londres","77","Whole apartment in great location","1","0","bajo"
"51.57731781975361","-0.3750264017165007","1516128","292911","LB of Harrow, Pinner","77","STUDIO APARTMENT NORTH WEST LONDON","9","5.0","bajo"
"51.55769691237204","-0.053234095328763636","13210400","5651690","LB of Hackney, Londres","77","Bright 1Bed Flat in Vibrant Hackney","2","0","bajo"
"51.459019662417134","-0.31222990746157286","9569982","7645017","LB of Richmond upon Thames, Twickenham","77","Studio Flat East Twickenham","1","0","bajo"
"51.55552876360735","-0.1413321073569991","43161800","8234726","Hampstead, Londres","77","Short let studio from 12 Sept","0","0","bajo"
"51.546614612183234","-0.15705694112472932","1303396","1592220","Hampstead, Londres","77","Clean spacious apt-perfect location","5","5.0","bajo"
"51.53776982018292","-0.254455640479672","1914283","383741","LB of Brent, Londres","77","Studio to rent, Harlesden (#HC)","4","3.5","bajo"
"51.54759739563853","-0.2370584174117136","1914283","682441","LB of Brent, Londres","77","Rent a studio, Dollis Hill (#DH1)","4","3.0","bajo"
"51.48368597799647","-0.1986892226229944","49616333","9585237","Fulham, Londres","77","Private Studio Flat Fulham","0","0","bajo"
"51.5187319868802","-0.16409923630156192","2253410","6175828","Marylebone, Londres","77","Stunning flat in Marylebone","5","5.0","bajo"
"51.5038984306306","-0.2270889512453009","25104317","9768135","Shepherd's Bush, Londres","77","Clean, New, Bright Studio","0","0","bajo"
"51.54726145516587","-0.06970912362318119","1163818","7806400","Dalston, Londres","77","A snug Studio flat in Dalston","1","0","bajo"
"51.56409333597977","-0.13662642057280028","34855171","6659542","LB of Islington, Londres","77","Entire 1 bed+1 sofa bed garden flat","1","0","bajo"
"51.592399361166954","-0.13887238906264182","37416684","7144951","LB of Haringey, Londres","77","Entire flat over Christmas holiday","0","0","bajo"
"51.479190151742266","-0.07129716667467505","1419671","9039426","Peckham, Londres","77","Spacious modern flat, free parking!","0","0","bajo"
"51.524713001330525","-0.025868668181691163","27429811","6477557","Bromley-by-Bow, Londres","77","Lovely studio just off Mile End","1","0","bajo"
"51.53658868206132","-0.2513118292175033","41478872","8072924","LB of Brent, Londres","77","Fully equipped ground floor Studio","0","0","bajo"
"51.44984856067521","-0.06554963767234498","31501675","7753445","East Dulwich, Londres","77","Light, bright, arty apartment","0","0","bajo"
"51.525060240664764","-0.010997571535605736","25131351","9343899","Bromley-by-Bow, Londres","77","Double room in a nice flat","0","0","bajo"
"51.589748647567525","-0.21765698794044228","50002135","9678034","LB of Barnet, Londres","77","Private Flat (1-3 people)","0","0","bajo"
"51.55480943537427","-0.05911764054577315","6059098","7165133","LB of Hackney, Londres","77","Sunny flat overlooking park","2","0","bajo"
"51.50636752573253","-0.233704096091189","32646257","6340254","Shepherd's Bush, Londres","77","STUDIO avec Jardin privé","5","4.5","bajo"
"51.583422391593224","-0.10032194003047977","36541804","9600343","LB of Haringey, Londres","77","Cosy Studio Flat in Harringay","0","0","bajo"
"51.392360129318256","-0.11319694981448024","31720260","8469157","LB of Croydon, Thornton Heath","77","Studio Apartment to Rent","4","4.0","bajo"
"51.456474166219905","-0.13164893408586548","8138871","8111190","Clapham, Londres","77","Spacious Georgian flat in Clapham!!","1","0","bajo"
"51.554518231985696","-0.21616846017623853","2695072","6821517","LB of Brent, Londres","75","Lovely Studio Zone 2 WIFI included","4","4.0","bajo"
"51.517236409879025","-0.2131349177787499","47858683","9201155","Notting Hill, Londres","77","Studio flat off Ladbroke Grove","0","0","bajo"
"51.4922762855028","0.06970932294351156","48247902","9292620","RB of Greenwich, Londres","77","1 Bedroom Apartment","2","0","bajo"
"51.463147634496664","-0.17102075644931838","4007609","760378","Battersea, Londres","77","Cozy flat just South of the Thames","2","0","bajo"
"51.467885269367464","-0.0507336448954887","6585350","2704912","New Cross, Londres","77","Lovely one bedroom Flat in Nunhead!","0","0","bajo"
"51.51895357812089","-0.21201751653798925","761400","165336","Notting Hill, Kensington","77","Charming Flat in Notting Hill","15","5.0","bajo"
"51.42842970717232","-0.1318886159452622","34673486","6625154","Lower Streatham, Londres","77","Spacious flat in Streatham","2","0","bajo"
"51.49384734747824","-0.20644536951706716","2292554","461248","Hammersmith, Londres","77","Centrico piso en Londres","8","5.0","bajo"
"51.52489947353336","-0.10255221581250672","1298627","9106549","Clerkenwell, Londres","77","★Bright warehouse, cool Clerkenwell","0","0","bajo"
"51.46616155660341","-0.06302012942369009","17290777","9171476","Nunhead, Londres","77","Entire Comfy Flat Peckham Rye","0","0","bajo"
"51.613801358907544","-0.029418146522398176","36820645","7679870","LB of Waltham Forest, Londres","77","Cosy&luxary flat close to the city","4","5.0","bajo"
"51.549305408243875","-0.18299036463380017","12321169","7960264","Hampstead, Londres","77","Great Studio Finchley Road","0","0","bajo"
"51.485226759305924","0.02655116987008842","33585931","6434313","RB of Greenwich, Londres","77","Bright, modern flat in Charlton","2","0","bajo"
"51.55083045038597","-0.08767917475967955","37257355","7112350","LB of Islington, Londres","77","1 bed garden flat Newington Green","1","0","bajo"
"51.45055165111369","-0.07455749494526791","28518264","9250073","East Dulwich, Londres","77","Lovely one/two bed flat in Dulwich","0","0","bajo"
"51.539651197632814","-0.05202439412436186","5637331","9116343","Hackney, Londres","75","Lovely Designer Flat in Hackney","1","0","bajo"
"51.54709953550596","-0.11657156024241008","29588798","8210215","LB of Islington, Londres","77","1 bed apt. at Caledonian Rd Tube","1","0","bajo"
"51.49356700353603","-0.0686050478777406","23698146","9404688","Bermondsey, Londres","77","SPACIOUS INNER CITY APARTMENT","0","0","bajo"
"51.54627751519725","-0.06344901952762763","2388955","946606","Dalston, Londres","77","Lovely 1 bed flat, London Fields E8","13","4.5","bajo"
"51.546172397598006","-0.2354186297969239","29694567","5727338","LB of Brent, Londra","77","Unic accommodation for 2 person","0","0","bajo"
"51.49175921783962","0.11695803690369616","43403737","8291993","RB of Greenwich, Londres","77","Full furnished entire flat.","10","4.0","bajo"
"51.46764026216409","-0.12107661049346236","24612070","4771284","Stockwell, Londres","77","Brand new city apt for 6 months","1","0","bajo"
"51.44470931311699","-0.01966875719523791","34733244","7540561","Bellingham, Londres","77","Spacious bright 1 bed-flat London","0","0","bajo"
"51.37643284256864","-0.22245494038858776","40889276","7773310","LB of Sutton, Sutton","77","Lovely self contained studio flat","11","5.0","bajo"
"51.56227199108676","-0.11721910635476937","10364824","7968537","LB of Islington, Londres","77","Georgian townhouse in Islington","2","0","bajo"
"51.575603824274225","-0.12274731779364045","39125991","7469952","LB of Haringey, Londres","77","One cosy studio flat","2","0","bajo"
"51.596033209526816","-0.2508467765483879","49639917","9611600","LB of Barnet, Colindale ","77","Luxurious 1 Bed Flat NW London","0","0","bajo"
"51.53659875255441","-0.06917332612990697","5510337","2072950","Haggerston, Londres","77","1BR flat overlooking Regent's canal","10","5.0","bajo"
"51.56439554113405","-0.09492979520542957","35759366","6826650","LB of Hackney, Londres","77","A cozy and sweet studio flat","1","0","bajo"
"51.5392867760227","-0.08525885033245191","3645962","7857483","De Beauvoir Town, Londres","77","Fantastic 2 bedroom apartment","6","4.5","bajo"
"51.56511733105267","-0.04906205671122999","39224128","7499033","LB of Hackney, Londres","77","Spacious Modern Flat","3","4.5","bajo"
"51.40834550988914","-0.29053400402497265","49002651","9456214","RB of Kingston upon Thames, Kingston upon Thames","77","1 Bedroom flat in Kingston","0","0","bajo"
"51.6250735667694","-0.12581761694254057","9035354","9511848","LB of Enfield, Londres","77","Bright flat! new development!","0","0","bajo"
"51.54872873788757","0.02138367898062974","2730945","8323438","LB of Newham, Londres","77","Modern lower ground floor","5","3.5","bajo"
"51.53462657142229","-0.06911127544851799","7547731","4983750","Haggerston, Londres","77","Modern garden flat in East London","6","4.5","bajo"
"51.58890757812601","-0.12122790836833365","40725655","7747569","LB of Haringey, Londres","77","Lovely spacious flat in Crouch End","0","0","bajo"
"51.50574134768183","-0.2296911518315534","1665232","325572","Shepherd's Bush, Londres","77","Beautiful 2bed Westfield Apartment","26","4.0","bajo"
"51.6017604226421","-0.2774274878129146","2219804","2669798","LB of Harrow, Londres","77","Farm House Ensuite Apartment","97","4.5","bajo"
"51.50714724892597","-0.4742886424686562","784428","164476","LB of Hillingdon, Hillingdon","77","20th Hole @Heathrow, Private Studio","143","5.0","bajo"
"51.51341551619419","-0.07088578613548205","8791278","7140775","Whitechapel/Brick Lane, Londres","77","Modern Studio Apt next Tower Bridge","2","0","bajo"
"51.5265120793724","-0.03075793375195001","3228588","6119479","Bow, Londres","77","Beautiful Home with Garden Mile End","6","4.0","bajo"
"51.49783767897997","-0.021601386604107164","37543667","7167987","Isle of Dogs, Londres","77","canary wharf Studio","1","0","bajo"
"51.5657375376018","-0.047447340910165725","40408337","7766232","LB of Hackney, Londres","77","Riverside flat with beautiful view","0","0","bajo"
"51.5633683025142","-0.09327806209546469","15959475","3144403","LB of Hackney, Londres","77","2bed apartment w garden in Highbury","1","0","bajo"
"51.48217071231151","-0.12115692745952632","200328","7978014","Kennington, Londres","77","Quirky Studio in Central Location","10","4.0","bajo"
"51.54844486300848","-0.04247931159249242","507755","7271762","LB of Hackney, Londres","77","Hackney sunny rooftop apartment","1","0","bajo"
"51.35267428176205","-0.1995376520259481","9824054","9651721","LB of Sutton, Sutton","77","1 bedroom flat very cosy and clean","0","0","bajo"
"51.55960649305531","-0.08183402706877142","2444375","972147","Stoke Newington, Londres","77","2 Bedroom Flat in Stoke Newington","1","0","bajo"
"51.59581379728499","-0.3272203885613747","25805103","5004326","LB of Harrow, Harrow","77","Detached self contained flat Harrow","27","4.5","bajo"
"51.42686658126502","-0.08119258623630486","45612610","8686872","West Norwood, Londres","77","Bright split-level apartment","0","0","bajo"
"51.5399599708217","-0.05442424499264324","9899627","7051542","Hackney, Londres","77","Bright and Airy London Fields Flat","1","0","bajo"
"51.558566056563826","0.013088909007371361","15952625","4084909","LB of Waltham Forest, Londres","77","LONDON DOABLE STUDIO, SLEEPS 2-4.","4","4.0","bajo"
"51.37682690142515","-0.4103271150016478","42135806","9587442","Walton-on-Thames","77","Bright, artistic apartment","0","0","bajo"
"51.508245134428755","-0.062291816097763276","17139274","3397315","Wapping, Londres","77","Central 1 Bedroom Apartment","2","0","bajo"
"51.503132141299034","-0.24027545715924467","2321157","7794116","Shepherd's Bush, Londres","77","Lovely Studio Flat","0","0","bajo"
"51.549906327795085","-0.20453803685595748","7603259","4773526","Hampstead, Londres","77","Studio apartment in Kilburn","5","4.5","bajo"
"51.557864234047926","0.011202334330687921","15952625","4346073","LB of Waltham Forest, Londres","77","LONDON ECONOMY STUDIO, SLEEPS 2-4.","2","0","bajo"
"51.56076275149658","-0.010154163406153752","2111190","542355","LB of Waltham Forest, Londres","77","Exciting Westfield Studio apartment","27","3.5","bajo"
"51.54299596510034","-0.08630093627780441","4814458","3736930","De Beauvoir Town, Londres","77","Beautiful 1 bedroom apt - Hackney","2","0","bajo"
"51.545680369235974","-0.22958551922774947","21849617","8798098","LB of Brent, Londres","77","2 bed flat with beautiful view!","1","0","bajo"
"51.53751132079994","-0.0923906274147074","8928666","8121887","Islington, Londres","77","One Bedroom Flat in Islington","2","0","bajo"
"51.54776043120547","-0.07147826167620312","2701246","7168323","Dalston, Londres","77","Studio in Dalston","3","5.0","bajo"
"51.54623418661711","0.059551057212983746","15952625","5055553","LB of Newham, Londres","77","LONDON REC'S  STUDIO, SLEEPS 2-4.","0","0","bajo"
"51.55728250550646","0.01308214789977444","2111190","2490158","LB of Waltham Forest, Londres","77","CLEAN AND COSY WESTFIELD STUDIO","1","0","bajo"
"51.6572711889651","-0.41952683036700766","43088027","8592691","Watford","77","Watford Underground St Apartment","0","0","bajo"
"51.5628644067524","-0.11716072929735609","24373094","4717967","LB of Islington, Londres","77","A nice quiet spacious room too cosy","2","0","bajo"
"51.50804239382973","-0.47128472672224875","10145846","9443408","LB of Hillingdon, West Drayton","77","Lovely 1 bed flat","0","0","bajo"
"51.626306863504574","-0.27286525288937763","42837413","8112671","LB of Barnet, Edgware","77","Spacious Studio in London","1","0","bajo"
"51.5480792058944","0.06113916441218795","15952625","5055558","LB of Newham, Londres","77","LONDON RECA'S  STUDIO, SLEEPS 2-4.","5","3.0","bajo"
"51.47668136423535","0.29693769062517944","40007889","7626774","Grays","77","Stylish apartment, close to London","3","5.0","bajo"
"51.56757899973033","0.057633722224853336","38995798","7444589","LB of Redbridge, Ilford","77","nice and quirky flat","0","0","bajo"
"51.5262872547212","-0.01784625864807342","10696040","6973008","Bromley-by-Bow, Londres","77","Great 2 bed flat in East London,Bow","3","4.5","bajo"
"51.549969751524095","-0.0702208699526763","23656910","7516027","Dalston, Londres","77","Lovely Comfy Flat in Dalston","0","0","bajo"
"51.64695649545712","0.07472871514345274","14011537","6091656","Loughton","77","Spacious Apartment with tube London","4","5.0","bajo"
"51.5122370856598","-0.19126505593675006","13119970","3928559","Bayswater, Londres","77","Sunny Studio in the Heart of London","8","4.5","bajo"
"51.46881269040368","-0.07822385043156327","42829840","9099968","Camberwell, Londres","77","Bright and Airy Studio Flat","0","0","bajo"
"51.52900409422985","-0.050191202413030524","35772862","8247710","Globe Town, Londres","77","1 Bedroom flat near Shoreditch","4","4.5","bajo"
"51.55536507456388","-0.08919518467318834","2432858","665892","LB of Islington, Londres","77","Zone 2 - STUDIO apt. for two - NCa","17","4.0","bajo"
"51.50628188170679","-0.21559708426604238","4843936","905451","Notting Hill, Londres","77","Lovely period apartment in London","0","0","bajo"
"51.557479043274256","-0.09052379845368713","2432858","665879","LB of Islington, Londres","77","Zone 2 - STUDIO apt. for two - NCb","46","4.0","bajo"
"51.5459125612003","-0.057010532800321714","1190865","1731217","Hackney, Londres","77","Bright One Bed Near Tube Stations!","14","3.5","bajo"
"51.56851648755107","-0.13277245097618942","1591053","4310689","LB of Islington, Londres","77","My studio flat in Archway/Highgate","0","0","bajo"
"51.49812795381394","-0.01358626095529751","1953872","8716645","Isle of Dogs, Londres","77","Modern spacious room in CanaryWharf","0","0","bajo"
"51.56842729554274","-0.029912799846367348","6908908","6897063","LB of Waltham Forest, Londres","77","East End home w/great vibe & garden","6","5.0","bajo"
"51.50678781783199","-0.2663254195040108","10372762","7521710","Acton, Londres","77","Garden flat in Acton close to tube!","2","0","bajo"
"51.45308021746879","-0.2418996010865274","45656358","8696411","Roehampton, Londres","77","Putney/Roehampton high spec flat","0","0","bajo"
"51.562410473034184","-0.009739404835002687","2111190","1032636","LB of Waltham Forest, Londres","77","Homely studio near trendy Westfield","8","3.5","bajo"
"51.416733835326944","-0.07519883558548747","24259983","4692685","Crystal Palace, Londres","77","Lovely 1 bed garden flat SE London","1","0","bajo"
"51.5572502799963","0.009262079085971731","15952625","3159803","LB of Waltham Forest, Londres","77","LONDON STYLISH BEDSIT, SLEEPS 2-4.","14","3.0","bajo"
"51.61346150087754","-0.12647007060510715","9707145","5530206","LB of Enfield, Londres","77","warm and cosy studio","20","4.5","bajo"
"51.56888050243371","-0.3012083508885649","9643261","5612956","LB of Brent, Wembley","77","1 Spacious bedroom flat","1","0","bajo"
"51.47104140090892","-0.3217920546283061","35229181","6727593","LB of Hounslow, Isleworth","77","Entire flat near river Thames.","0","0","bajo"
"51.522398335269635","-0.34582927935634844","6839686","1255650","LB of Ealing, Londres","77","Bright Garden Flat West London","6","4.5","bajo"
"51.513499770922756","-0.0620396524489525","6780234","9750293","Shadwell, Londres","79","Great Value studio with bathroom 4S","0","0","bajo"
"51.511029815405514","-0.27614334052118816","4261235","810126","Acton, Londres","79","BEAUTIFUL STUDIO SKYLINES  wifi","17","4.5","bajo"
"51.49597182454146","-0.2973820149521441","1864158","3825844","LB of Hounslow, Brentford","79","Great Studio Flat Overlooking Gunne","26","4.5","bajo"
"51.54420673303733","-0.22664948143688798","1914283","7355682","LB of Brent, Londres","79","Rent Small Studio zone 2  #ST1","1","0","bajo"
"51.59227746202047","-0.2564380221794271","1521032","294177","LB of Barnet, Londres","79","Nice and cosy studio flat in London","66","4.5","bajo"
"51.598688836872086","-0.1200743810486488","30484669","6963841","LB of Haringey, Londres","79","Amazing parkfacing 1 Bedroom Flat","1","0","bajo"
"51.55272406071725","-0.05492572930775012","50347640","9763405","LB of Hackney, Londres","79","Bright, well-appointed, comfortable","0","0","bajo"
"51.4754561194147","-0.032825342530297744","7585391","2852866","New Cross, Londres","79","Entire Flat w/ London Skyline View","1","0","bajo"
"51.53675785118726","0.07995628569228962","19565429","8754823","LB of Barking and Dagenham, Barking","79","1 BHK fully furnished flat - London","1","0","bajo"
"51.5577590652102","-0.06291408027698196","3014394","3259235","LB of Hackney, Londres","79","Cute sunny 1br aprt Stoke Newington","11","5.0","bajo"
"51.468760415052365","-0.03408080337552112","15296074","7786928","Lewisham, Londres","79","One bedroom in lovely area","1","0","bajo"
"51.56206747474964","-0.009758684485889825","2111190","1413066","LB of Waltham Forest, Londres","79","Gorgeous studio close to Westfield","5","4.0","bajo"
"51.446459838500004","-0.041334055498404916","44597029","8468457","Forest Hill, Londres","79","Great flat, great view, great area!","0","0","bajo"
"51.54579240384911","-0.07447416385991507","24226888","4685597","Dalston, Dalston Square","79","Double Room in Dalston available","2","0","bajo"
"51.54281526645314","-0.050659448935554574","149784","278360","Hackney","79","Fantastic 2BD near Victoria Park","5","5.0","bajo"
"51.31909560065947","-0.581387946208498","3714093","5036514","Woking","79","WOKING ; TOWN FLAT - SLEEPS 4","10","4.5","bajo"
"51.656716831725575","-0.40070120194349407","2052345","7626108","Watford","79","Brand new Studio in Watford","2","0","bajo"
"51.24785248481332","-0.16559800146282508","19995046","4144368","Redhill","79","Cosy pied-à-terre - ","29","4.5","bajo"
"51.75127724600631","-0.3396007064111292","43508280","8252210","Saint Albans","79","Cool place nearby centre of city","0","0","bajo"
"51.593966458995546","-0.09870807400307947","42991598","8203772","LB of Haringey, Londres","80","London Mini Studio Flat","29","4.0","bajo"
"51.53344995368778","-0.24237712165969616","1914283","4478544","LB of Brent, Harlesden","80","Studio to rent,London zone 2(#WJD)","3","3.5","bajo"
"51.48758783197663","-0.13836171445406914","11797267","8117223","Pimlico, Londres","80","COSY STUDIO FLAT IN PIMLICO","1","0","bajo"
"51.56557623043546","-0.11029252849453526","16312126","3221020","LB of Islington, Londres","80","Bargain Bedsit in Islington","4","4.5","bajo"
"51.58169959810237","-0.23234831738519962","2672646","4848047","LB of Barnet, Londres","80","HENDON CENTRAL COZY STUDIO FLAT ","27","4.5","bajo"
"51.542762660386536","-0.1965168950950866","47619466","9144873","Hampstead, Londres","80","Clean & newly refurbished studio","1","0","bajo"
"51.49484473268343","-0.04316934344855386","1590736","309346","Rotherhithe, Londres","80","Warmly double room in cental london","18","3.5","bajo"
"51.55318795348858","-0.05535505802040597","2828479","605812","LB of Hackney, Londres","80","Stylish East London Hackney Studio","16","5.0","bajo"
"51.53670881713597","-0.23984393504276078","388850","9308347","LB of Brent, Londres","80","Spacious, bright & wellpriced flat","0","0","bajo"
"51.5334365479315","-0.24151363070290147","1914283","662815","LB of Brent, Londres","80","Flat, Willesden Junction (#WJB)","5","3.0","bajo"
"51.534907273387894","-0.2433774086869142","1914283","661204","LB of Brent, Londres","80","Studio, Willesden Junction (#OM4)","3","3.0","bajo"
"51.53737701516136","-0.2541871519381414","1914283","4478293","LB of Brent, Londres","80","Studio to rent in London (#HE)","1","0","bajo"
"51.47092833614905","-0.014145878375330418","18678026","3677275","Blackheath, Londres","80","Spacious 1BedFlat in Greenwich, LDN","2","0","bajo"
"51.555097974623095","-0.03740903175163596","14786404","6923104","LB of Hackney, Londres","80","Stylish spacious Clapton flat","3","4.5","bajo"
"51.56078296115781","-0.009493033208499679","2111190","697354","LB of Waltham Forest, Londres","80","Open studio near trendy Westfield","11","4.0","bajo"
"51.55656225334048","-0.05616534165451366","41915988","7948930","LB of Hackney, Londres","80","Sunny 2 bed garden flat with sauna!","0","0","bajo"
"51.551180181259845","-0.0551944486175624","2828479","605854","LB of Hackney, Londres","80","Stylish Hackney London 1 Bed Flat","12","4.5","bajo"
"51.53477193451421","-0.24111191896311468","1914283","682386","LB of Brent, Londres","80","Flat, Willesden Junction (#WJA)","2","0","bajo"
"51.547575529730906","-0.23721000539038845","1914283","682458","LB of Brent, Londres","80"," Rent Nice Studio Dollis Hill #DH2","3","3.5","bajo"
"51.54708971001685","-0.22874871285571238","1914283","3795810","LB of Brent, Londres","80","Studio, Willesden Green (#RED C)","6","4.0","bajo"
"51.383606270140184","-0.08233508957371306","30629100","5897410","LB of Croydon, London Borough of Croydon","82","08 Convenience, Space and Value.","8","5.0","bajo"
"51.5099011840121","-0.02280629928209833","34389584","8530973","Poplar, Londres","82","Quiet & Cosy Flat near Canary Wharf","2","0","bajo"
"51.57342854983043","-0.20036256355955898","43482434","8245295","LB of Barnet, Londres","82","Bright Modern Apartment in London","2","0","bajo"
"51.54713870102723","-0.2279679418510962","1914283","5009634","LB of Brent, Brent","82","Studio to rent, London zone 2 #P2","3","3.0","bajo"
"51.52994623134329","-0.1763486132239381","37935291","8920404","St. John's Wood, Londres","80","Great Luminous Regent's Park Apart.","0","0","bajo"
"51.459005587888974","0.031570983698420214","29856863","6229560","RB of Greenwich, Kidbrooke","82","Modern 2 bedroom London apartment","1","0","bajo"
"51.55369377577163","-0.07502121096508355","4684579","8526780","Stoke Newington, Londres","82","Lovely high ceiling loft & mezanine","1","0","bajo"
"51.48696252062151","-0.20732188278372066","27199777","5301014","Hammersmith, Londres","82","1bedroom flat in WestKensingtonE@43","8","3.5","bajo"
"51.44438552470419","-0.33486632629872964","17937204","8866183","LB of Richmond upon Thames, Twickenham","82","Central Studio in Twickenham","1","0","bajo"
"51.53705949838555","0.07850174757247733","23528890","4537709","LB of Barking and Dagenham, Barking","82","1 BHK apartment in Barking (London)","1","0","bajo"
"51.514703784996684","-0.10679788413192745","47342842","9078873","City of London, Londres","82","Entire home in central London","1","0","bajo"
"51.53547509839409","-0.2400578045020545","1914283","8379741","LB of Brent, Londres","83","Rent a Studio in London, zone 2 #R7","1","0","bajo"
"51.55947499503427","-0.22121892609929197","1914283","8791697","LB of Brent, Londres","83","Rent STUDIO London zone 2 #MR6","0","0","bajo"
"51.55004352995724","-0.218583644755503","1914283","691743","LB of Brent, Londres","83","Studio Willesden Green (#WALM1)","9","3.0","bajo"
"51.473165679925785","-0.08746159344158255","46765282","8946853","Camberwell, Londres","83","Cosy & Central Studio (Zone 2)","0","0","bajo"
"51.47438791336753","-0.08519504337023107","12130580","8381271","Camberwell, Londres","83","1 Bedroom Flat just off main street","3","5.0","bajo"
"51.47293226241628","-0.016246415670373205","42691169","8082323","Lewisham, Londres","83","Greenwich (great transport links)","0","0","bajo"
"51.57397366956571","-0.28534836767538513","4311232","5861116","LB of Brent, Wembley","83","Nice clean private loft in wembley","15","5.0","bajo"
"51.60887242739208","-0.12128860946951091","42233005","8000526","LB of Enfield, Londres","83","Big, Cozy, Victorian Flat!","6","4.5","bajo"
"51.47593217978086","-0.10293242419533685","47442002","9502752","Stockwell, Londres","83","Lovely, spacious top-floor flat","2","0","bajo"
"51.58333020506823","-0.11137579714636774","21352771","4115545","LB of Haringey, Londres","83","Cosy & charming period 1 bed flat","4","5.0","bajo"
"51.51099376198567","-0.010087262238414147","9364073","4143965","Poplar, Londres","83","Contemporary 1 bedroom flat \"4\"","1","0","bajo"
"51.530956111185205","-0.05470387186201284","43408363","8949547","Bethnal Green, Londres","83","1 Bedroom E2, Bethnal green","1","0","bajo"
"51.41935006603512","-0.02342034171984873","3004297","813553","LB of Bromley, Beckenham","83","Lovely 2 bedroom apartment","27","4.5","bajo"
"51.46396983648594","-0.22720770486838915","22994950","4429525","Putney, Londres","83","Bonito apartamento en Londres","2","0","bajo"
"51.62662634163976","-0.493904551467886","34184611","6540379","Rickmansworth","83","Lake Views, Spacious 40sq m  Studio","21","4.5","bajo"
"51.75231647507909","-0.3275324423389638","47480369","9110186","Saint Albans","83","Serviced 1 bed flat St Albans City","0","0","bajo"
"51.51513344701254","-0.17938219792251112","23977491","6881488","Bayswater, Londres","85","Terrace Single Apt In Paddington P7","25","4.0","bajo"
"51.48884464419824","-0.08766218177437232","30423395","5914176","Walworth, Londres","85","Nice self contained studio","10","4.0","bajo"
"51.520208492213676","-0.05154848686603526","7281294","8203542","Stepney, Londres","85","Fashionable rooms in the city !!!","3","4.5","bajo"
"51.513141715624954","-0.02839925594114617","45576524","8677917","Bromley-by-Bow, Londres","85","Full Apartment 1 Bedroom E. London","0","0","bajo"
"51.560100152396416","-0.21964933951151572","1914283","8791184","LB of Brent, Londres","85","Rent a Studio in London zone 2 #MR2","0","0","bajo"
"51.51867206460385","-0.26341236270456964","8103529","9257050","Acton, Londres","85","1 Bed garden flat - Close to Tube","3","4.5","bajo"
"51.54098083734468","-0.20104332386441592","45536365","9404583","LB of Brent, Londres","85","Cozy 1 Bedroom Flat, Zone 2","0","0","bajo"
"51.57523214602337","-0.09689865111610091","29914391","6356751","LB of Haringey, Londres","85","Real Bargain! - Central Studio Flat","9","4.0","bajo"
"51.43946436209631","-0.014297181180361744","4426503","847848","Bellingham, Londres","85","Contemporary Stylish 1B Home","0","0","bajo"
"51.46764644341689","-0.10137305834118467","50098892","9702769","Stockwell, Londres","85","Cosy bright flat","0","0","bajo"
"51.44986317202187","-0.11052494065332455","46223786","8824685","Brixton, Londres","85","Bright, cosy modern flat in Brixton","0","0","bajo"
